{
  "version": 0.6,
  "generator": "Overpass API 0.7.56.7 b85c4387",
  "osm3s": {
    "timestamp_osm_base": "2020-10-22T14:43:03Z",
    "timestamp_areas_base": "2020-10-22T14:24:03Z",
    "copyright": "The data included in this document is from www.openstreetmap.org. The data is made available under ODbL."
  },
  "elements": [

    {
      "type": "node",
      "id": 26862562,
      "lat": 47.4750415,
      "lon": 12.7338343,
      "tags": {
        "ele": "2634",
        "name": "Birnhorn",
        "natural": "peak",
        "prominence": "1665",
        "summit:cross": "yes",
        "wikidata": "Q683611"
      }
    },
    {
      "type": "node",
      "id": 26862621,
      "lat": 47.2294962,
      "lon": 10.0643311,
      "tags": {
        "ele": "2649",
        "ele:müa": "2649",
        "ele:source": "Wikipedia",
        "name": "Braunarlspitze",
        "natural": "peak",
        "summit:cross": "yes",
        "wikidata": "Q452114",
        "wikipedia": "de:Braunarlspitze"
      }
    },
    {
      "type": "node",
      "id": 26862760,
      "lat": 47.4751798,
      "lon": 13.6057102,
      "tags": {
        "alt_name": "Dachstein",
        "ele": "2995",
        "importance": "national",
        "massif": "Dachstein",
        "name": "Hoher Dachstein",
        "name:lt": "Aukštasis Dachšteinas",
        "name:zh": "达赫施泰因山",
        "natural": "peak",
        "prominence": "2136",
        "source:prominence": "https://en.wikipedia.org/wiki/List_of_Alpine_peaks_by_prominence",
        "summit:cross": "yes",
        "tourism": "viewpoint",
        "wheelchair": "no",
        "wikidata": "Q686841",
        "wikipedia": "de:Dachstein (Berg)"
      }
    },
    {
      "type": "node",
      "id": 26862772,
      "lat": 46.8718905,
      "lon": 12.3579692,
      "tags": {
        "ele": "2962",
        "name": "Weiße Spitze",
        "natural": "peak",
        "prominence": "919",
        "summit:cross": "yes",
        "summit:register": "yes",
        "wikidata": "Q698770",
        "wikipedia": "de:Weiße Spitze"
      }
    },
    {
      "type": "node",
      "id": 26862948,
      "lat": 47.1483387,
      "lon": 10.6616694,
      "tags": {
        "alt_name": "Venet",
        "ele": "2512",
        "name": "Glanderspitze",
        "natural": "peak",
        "prominence": "975",
        "wikidata": "Q2512836",
        "wikipedia": "de:Venet (Berg)"
      }
    },
    {
      "type": "node",
      "id": 26863041,
      "lat": 47.0745464,
      "lon": 12.6938826,
      "tags": {
        "ele": "3798",
        "importance": "national",
        "name": "Großglockner",
        "name:pl": "Grossglockner",
        "name:ru": "Гросглокнер",
        "name:sl": "Veliki Klek",
        "natural": "peak",
        "prominence": "2423",
        "source:prominence": "https://en.wikipedia.org/wiki/List_of_Alpine_peaks_by_prominence",
        "summit:cross": "yes",
        "wikidata": "Q3388",
        "wikipedia": "de:Großglockner"
      }
    },
    {
      "type": "node",
      "id": 26863054,
      "lat": 47.3203059,
      "lon": 13.9757742,
      "tags": {
        "ele": "2599",
        "massif": "Schladminger Tauern",
        "name": "Grosser Knallstein",
        "natural": "peak"
      }
    },
    {
      "type": "node",
      "id": 26863055,
      "lat": 47.3455546,
      "lon": 11.4527661,
      "tags": {
        "ele": "2696",
        "name": "Großer Lafatscher",
        "natural": "peak",
        "prominence": "615",
        "wikidata": "Q290991",
        "wikipedia": "de:Großer Lafatscher"
      }
    },
    {
      "type": "node",
      "id": 26863056,
      "lat": 47.7169424,
      "lon": 14.0632524,
      "tags": {
        "ele": "2515",
        "name": "Großer Priel",
        "natural": "peak",
        "prominence": "1703",
        "summit:cross": "yes",
        "summit:register": "yes",
        "wikidata": "Q695334",
        "wikipedia": "de:Großer Priel"
      }
    },
    {
      "type": "node",
      "id": 26863079,
      "lat": 47.2108283,
      "lon": 13.6147720,
      "tags": {
        "ele": "2526",
        "name": "Gurpitscheck",
        "natural": "peak",
        "prominence": "660"
      }
    },
    {
      "type": "node",
      "id": 26863165,
      "lat": 47.0761478,
      "lon": 12.9377331,
      "tags": {
        "ele": "3254",
        "name": "Hocharn",
        "name:ru": "Хохарн",
        "natural": "peak",
        "prominence": "678",
        "summit:cross": "yes",
        "summit:register": "yes",
        "wikidata": "Q1621665",
        "wikipedia": "de:Hocharn"
      }
    },
    {
      "type": "node",
      "id": 26863167,
      "lat": 47.1561111,
      "lon": 12.6736111,
      "tags": {
        "ele": "3206",
        "name": "Hocheiser",
        "natural": "peak",
        "wikidata": "Q21871785"
      }
    },
    {
      "type": "node",
      "id": 26863172,
      "lat": 47.2662710,
      "lon": 13.7606420,
      "tags": {
        "ele": "2862",
        "massif": "Schladminger Tauern",
        "name": "Hochgolling",
        "natural": "peak",
        "prominence": "1124",
        "summit:cross": "yes",
        "summit:register": "yes",
        "wikidata": "Q700259",
        "wikimedia_commons": "Category:Hochgolling",
        "wikipedia": "de:Hochgolling"
      }
    },
    {
      "type": "node",
      "id": 26863179,
      "lat": 47.4203341,
      "lon": 13.0624483,
      "tags": {
        "ele": "2941",
        "man_made": "cross",
        "name": "Hochkönig",
        "natural": "peak",
        "prominence": "2181",
        "ref:avf": "4100",
        "source:prominence": "https://en.wikipedia.org/wiki/List_of_Alpine_peaks_by_prominence",
        "summit:cross": "yes",
        "wikidata": "Q262545",
        "wikipedia": "de:Hochkönig (Bergmassiv)"
      }
    },
    {
      "type": "node",
      "id": 26863185,
      "lat": 47.3531340,
      "lon": 10.9883727,
      "tags": {
        "ele": "2768",
        "name": "Hochplattig",
        "natural": "peak",
        "prominence": "1189",
        "wikidata": "Q873696",
        "wikipedia": "de:Hochplattig"
      }
    },
    {
      "type": "node",
      "id": 26863442,
      "lat": 47.0485358,
      "lon": 10.2300323,
      "tags": {
        "ele": "3148",
        "name": "Kuchenspitze",
        "natural": "peak",
        "source": "GPS",
        "wikidata": "Q19288421",
        "wikipedia": "de:Kuchenspitze"
      }
    },
    {
      "type": "node",
      "id": 26864019,
      "lat": 47.2062367,
      "lon": 13.3957863,
      "tags": {
        "ele": "2680",
        "name": "Mosermandl",
        "natural": "peak",
        "summit:cross": "yes",
        "wikidata": "Q1728599",
        "wikipedia": "de:Mosermandl"
      }
    },
    {
      "type": "node",
      "id": 26864044,
      "lat": 47.3231897,
      "lon": 10.6414282,
      "tags": {
        "ele": "2553",
        "name": "Namloser Wetterspitze",
        "natural": "peak",
        "prominence": "722",
        "wikidata": "Q874485",
        "wikipedia": "de:Namloser Wetterspitze"
      }
    },
    {
      "type": "node",
      "id": 26864045,
      "lat": 47.0600986,
      "lon": 12.0396158,
      "tags": {
        "ele": "3144",
        "name": "Napfspitz",
        "name:de": "Napfspitze",
        "name:it": "Cima Cadini",
        "natural": "peak",
        "wikidata": "Q1964857",
        "wikipedia": "de:Napfspitze (Zillertaler Hauptkamm)"
      }
    },
    {
      "type": "node",
      "id": 26864190,
      "lat": 47.1742592,
      "lon": 10.4782868,
      "tags": {
        "description": "Höchster Berg der Lechtaler Alpen und der Nördlichen Kalkalpen",
        "ele": "3036",
        "name": "Parseierspitze",
        "natural": "peak",
        "prominence": "1243",
        "wikidata": "Q697931",
        "wikipedia": "de:Parseierspitze"
      }
    },
    {
      "type": "node",
      "id": 26864220,
      "lat": 46.9482341,
      "lon": 12.8039982,
      "tags": {
        "ele": "3283",
        "name": "Petzeck",
        "natural": "peak",
        "prominence": "799",
        "wikidata": "Q387629",
        "wikipedia": "de:Petzeck"
      }
    },
    {
      "type": "node",
      "id": 26864221,
      "lat": 47.1719444,
      "lon": 10.0408333,
      "tags": {
        "ele": "2539",
        "name": "Pfaffeneck",
        "natural": "peak"
      }
    },
    {
      "type": "node",
      "id": 26864526,
      "lat": 46.7667060,
      "lon": 12.8116900,
      "tags": {
        "ele": "2772",
        "name": "Große Sandspitze",
        "natural": "peak",
        "prominence": "1245",
        "wikidata": "Q501315",
        "wikipedia": "de:Große Sandspitze"
      }
    },
    {
      "type": "node",
      "id": 26864550,
      "lat": 47.0538526,
      "lon": 9.7074066,
      "tags": {
        "ele": "2965",
        "ele:müa": "2965",
        "ele:müm": "2964",
        "ele:source": "Wikipedia",
        "name": "Schesaplana",
        "natural": "peak",
        "prominence": "828",
        "wikidata": "Q15241",
        "wikipedia": "de:Schesaplana"
      }
    },
    {
      "type": "node",
      "id": 26864565,
      "lat": 46.6065207,
      "lon": 12.8607024,
      "tags": {
        "alt_name": "Creta Forata di Volaia",
        "ele": "2554",
        "name": "Monte Capolago / Seekopf",
        "name:de": "Seekopf",
        "name:it": "Monte Capolago",
        "natural": "peak",
        "prominence": "585",
        "wikidata": "Q21865720",
        "wikipedia": "sv:Seekopf (berg i Österrike, Kärnten)"
      }
    },
    {
      "type": "node",
      "id": 26864773,
      "lat": 47.1738889,
      "lon": 10.0758333,
      "tags": {
        "alt_name": "Spuller Schafberg",
        "ele": "2679",
        "name": "Spullerschafberg",
        "natural": "peak",
        "prominence": "670"
      }
    },
    {
      "type": "node",
      "id": 26865019,
      "lat": 46.9373037,
      "lon": 10.1128802,
      "tags": {
        "ele": "2813",
        "name": "Vallüla",
        "natural": "peak",
        "prominence": "775",
        "wikidata": "Q21863712"
      }
    },
    {
      "type": "node",
      "id": 26865132,
      "lat": 46.7978232,
      "lon": 10.7260620,
      "tags": {
        "ele": "3738",
        "name": "Weißkugel - Palla Bianca",
        "name:de": "Weißkugel",
        "name:it": "Palla Bianca",
        "natural": "peak",
        "wikidata": "Q701816",
        "wikipedia": "it:Palla Bianca"
      }
    },
    {
      "type": "node",
      "id": 26865136,
      "lat": 47.2847222,
      "lon": 10.1291667,
      "tags": {
        "ele": "2533",
        "name": "Großer Widderstein",
        "natural": "peak",
        "prominence": "845",
        "ref:avf": "823",
        "summit:cross": "yes",
        "wikidata": "Q458391",
        "wikipedia": "de:Großer Widderstein"
      }
    },
    {
      "type": "node",
      "id": 26865139,
      "lat": 46.8852371,
      "lon": 10.8672222,
      "tags": {
        "ele": "3768",
        "name": "Wildspitze",
        "name:ru": "Вильдшпитце",
        "natural": "peak",
        "note": "south peak\n\nbased on ÖAV map the heigth is 3770 m.ü.A\nbased on BEV the heigth is 3768 m.ü.A",
        "prominence": "2261",
        "source:prominence": "https://en.wikipedia.org/wiki/List_of_Alpine_peaks_by_prominence",
        "summit:cross": "yes",
        "wikidata": "Q679277",
        "wikipedia": "de:Wildspitze"
      }
    },
    {
      "type": "node",
      "id": 26865160,
      "lat": 47.0913617,
      "lon": 9.7889005,
      "tags": {
        "ele": "2643",
        "name": "Zimba",
        "natural": "peak",
        "source": "GPS",
        "summit:cross": "yes",
        "wikidata": "Q203400",
        "wikipedia": "de:Zimba"
      }
    },
    {
      "type": "node",
      "id": 29867982,
      "lat": 47.1237732,
      "lon": 12.8314232,
      "tags": {
        "ele": "2572",
        "name": "Edelweißspitze",
        "natural": "peak"
      }
    },
    {
      "type": "node",
      "id": 36688518,
      "lat": 47.1880444,
      "lon": 12.6874982,
      "tags": {
        "ele": "3203",
        "name": "Kitzsteinhorn",
        "name:ar": "قمة كابرون",
        "natural": "peak",
        "wikidata": "Q668012",
        "wikipedia": "de:Kitzsteinhorn"
      }
    },
    {
      "type": "node",
      "id": 91313899,
      "lat": 47.0741844,
      "lon": 12.6952157,
      "tags": {
        "ele": "3770",
        "name": "Kleinglockner",
        "natural": "peak",
        "wikidata": "Q873240",
        "wikimedia_commons": "https://live.staticflickr.com/65535/49453821121_d81d8405b8_b.jpg",
        "wikipedia": "de:Kleinglockner"
      }
    },
    {
      "type": "node",
      "id": 246541691,
      "lat": 47.3313983,
      "lon": 10.4514590,
      "tags": {
        "ele": "2522",
        "fixme": "which name is right? AV uses the alt-name",
        "name": "Wolekleskarspitze",
        "name:alt": "Woleggleskarspitze",
        "natural": "peak",
        "ref:avf": "1672",
        "source": "GPS",
        "wikidata": "Q2588430",
        "wikipedia": "de:Wolekleskarspitze"
      }
    },
    {
      "type": "node",
      "id": 246553311,
      "lat": 47.3258135,
      "lon": 10.4410681,
      "tags": {
        "ele": "2594",
        "name": "Noppenspitze",
        "natural": "peak",
        "ref:avf": "1659",
        "source": "GPS",
        "wikidata": "Q1422936",
        "wikipedia": "de:Noppenspitze"
      }
    },
    {
      "type": "node",
      "id": 249419777,
      "lat": 47.1494581,
      "lon": 10.2218292,
      "tags": {
        "ele": "2648",
        "name": "Schindlerspitze",
        "natural": "peak"
      }
    },
    {
      "type": "node",
      "id": 250065501,
      "lat": 47.0441055,
      "lon": 10.1876242,
      "tags": {
        "ele": "3056",
        "name": "Patteriol",
        "natural": "peak",
        "source": "GPS",
        "wikidata": "Q15124484",
        "wikipedia": "de:Patteriol"
      }
    },
    {
      "type": "node",
      "id": 250067356,
      "lat": 47.0793072,
      "lon": 10.1001147,
      "tags": {
        "ele": "2753",
        "name": "Östliche Eisentaler Spitze",
        "natural": "peak",
        "source": "GPS",
        "summit:cross": "yes"
      }
    },
    {
      "type": "node",
      "id": 250067524,
      "lat": 47.0639552,
      "lon": 10.1348834,
      "tags": {
        "ele": "2676",
        "name": "Gaflunakopf",
        "natural": "peak",
        "source": "GPS"
      }
    },
    {
      "type": "node",
      "id": 250067547,
      "lat": 47.0610670,
      "lon": 10.1459470,
      "tags": {
        "ele": "2611",
        "name": "Pfannseekopf",
        "natural": "peak",
        "source": "GPS"
      }
    },
    {
      "type": "node",
      "id": 250068159,
      "lat": 46.8907029,
      "lon": 10.7747967,
      "tags": {
        "ele": "3296",
        "name": "Hintere Ölgrubenspitze",
        "natural": "peak"
      }
    },
    {
      "type": "node",
      "id": 255973218,
      "lat": 47.1315444,
      "lon": 11.0950077,
      "tags": {
        "ele": "3004",
        "name": "Zischgeles",
        "natural": "peak",
        "summit:cross": "yes",
        "wikidata": "Q206030",
        "wikipedia": "de:Zischgeles"
      }
    },
    {
      "type": "node",
      "id": 255973617,
      "lat": 47.3027047,
      "lon": 11.3076615,
      "tags": {
        "ele": "2541",
        "name": "Großer Solstein",
        "natural": "peak",
        "wikidata": "Q873196",
        "wikipedia": "de:Großer Solstein"
      }
    },
    {
      "type": "node",
      "id": 256041586,
      "lat": 47.1892080,
      "lon": 10.9566530,
      "tags": {
        "ele": "3008",
        "name": "Acherkogel",
        "natural": "peak",
        "wikidata": "Q871698",
        "wikipedia": "de:Acherkogel"
      }
    },
    {
      "type": "node",
      "id": 256041591,
      "lat": 47.1294023,
      "lon": 11.9177291,
      "tags": {
        "alt_name": "Ahornspitz",
        "ele": "2976",
        "name": "Ahornspitze",
        "natural": "peak",
        "wikidata": "Q402568",
        "wikipedia": "de:Ahornspitze"
      }
    },
    {
      "type": "node",
      "id": 256041661,
      "lat": 47.1726022,
      "lon": 11.9622122,
      "tags": {
        "ele": "2700",
        "name": "Brandberger Kolm",
        "natural": "peak",
        "summit:cross": "yes",
        "summit:register": "yes",
        "wikidata": "Q897823"
      }
    },
    {
      "type": "node",
      "id": 256041669,
      "lat": 46.8748832,
      "lon": 10.8505808,
      "tags": {
        "ele": "3565",
        "name": "Vorderer Brochkogel",
        "natural": "peak",
        "wikidata": "Q662901",
        "wikipedia": "de:Vorderer Brochkogel"
      }
    },
    {
      "type": "node",
      "id": 256041672,
      "lat": 47.1661288,
      "lon": 10.4730254,
      "tags": {
        "description": "Zweithöchster Berg der Lechtaler Alpen",
        "ele": "2970",
        "name": "Dawinkopf",
        "natural": "peak",
        "wikidata": "Q639532",
        "wikipedia": "de:Dawinkopf"
      }
    },
    {
      "type": "node",
      "id": 256041678,
      "lat": 47.0998746,
      "lon": 12.6557808,
      "tags": {
        "ele": "3426",
        "name": "Eiskögele",
        "name:ru": "Айскёгеле",
        "natural": "peak",
        "source:position": "data.ktn.gv.at",
        "wikidata": "Q263100",
        "wikipedia": "de:Eiskögele (Glocknergruppe)"
      }
    },
    {
      "type": "node",
      "id": 256041682,
      "lat": 47.1633125,
      "lon": 10.4471947,
      "tags": {
        "ele": "2859",
        "name": "Eisenspitze",
        "natural": "peak",
        "note": "Position in Wikipedia ist falsch",
        "source": "estimated from NASA height data",
        "wikidata": "Q874563",
        "wikipedia": "de:Eisenspitze"
      }
    },
    {
      "type": "node",
      "id": 256041683,
      "lat": 46.9211912,
      "lon": 10.9101317,
      "tags": {
        "ele": "3278",
        "name": "Linker Fernerkogel",
        "natural": "peak",
        "summit:cross": "yes",
        "wikidata": "Q1826832",
        "wikipedia": "de:Linker Fernerkogel"
      }
    },
    {
      "type": "node",
      "id": 256041685,
      "lat": 46.8197993,
      "lon": 10.9536995,
      "tags": {
        "ele": "3490",
        "name": "Firmisanschneide",
        "natural": "peak",
        "source": "basemap.at",
        "wikidata": "Q663563",
        "wikipedia": "de:Firmisanschneide"
      }
    },
    {
      "type": "node",
      "id": 256041690,
      "lat": 46.8582269,
      "lon": 10.7921997,
      "tags": {
        "ele": "3500",
        "name": "Fluchtkogel",
        "natural": "peak",
        "source": "survey",
        "summit:cross": "yes",
        "wikidata": "Q672961",
        "wikipedia": "de:Fluchtkogel"
      }
    },
    {
      "type": "node",
      "id": 256041693,
      "lat": 46.9717141,
      "lon": 11.2442192,
      "tags": {
        "ele": "3267",
        "name": "Östlicher Feuerstein - Montarso Orientale",
        "name:de": "Östlicher Feuerstein",
        "name:it": "Montarso Orientale",
        "natural": "peak",
        "wikidata": "Q922451",
        "wikipedia": "de:Feuerstein (Stubaier Alpen)"
      }
    },
    {
      "type": "node",
      "id": 256041694,
      "lat": 46.7804128,
      "lon": 10.8318669,
      "tags": {
        "alt_name": "Finailspitze",
        "ele": "3514",
        "name": "Finailspitze - Punta di Finale",
        "name:de": "Finailspitze",
        "name:it": "Punta di Finale",
        "natural": "peak",
        "source": "basemap.at",
        "wikidata": "Q544968",
        "wikipedia": "it:Punta di Finale"
      }
    },
    {
      "type": "node",
      "id": 256041696,
      "lat": 47.0403312,
      "lon": 10.5118741,
      "tags": {
        "ele": "3004",
        "name": "Furgler",
        "natural": "peak",
        "wikidata": "Q876550",
        "wikipedia": "de:Furgler"
      }
    },
    {
      "type": "node",
      "id": 256041699,
      "lat": 46.8914194,
      "lon": 10.2271003,
      "tags": {
        "ele": "3398",
        "name": "Fluchthorn",
        "name:de": "Fluchthorn",
        "name:rm": "Piz Fenga",
        "natural": "peak",
        "prominence": "647",
        "wikidata": "Q668551",
        "wikipedia": "de:Fluchthorn"
      }
    },
    {
      "type": "node",
      "id": 256041726,
      "lat": 47.0247222,
      "lon": 10.8283333,
      "tags": {
        "ele": "3125",
        "name": "Gamezkogel",
        "natural": "peak",
        "wikidata": "Q1493116",
        "wikipedia": "de:Gamezkogel"
      }
    },
    {
      "type": "node",
      "id": 256041727,
      "lat": 47.0580556,
      "lon": 11.8908333,
      "tags": {
        "ele": "3001",
        "name": "Gigalitz",
        "natural": "peak",
        "wikidata": "Q1523612",
        "wikipedia": "de:Gigalitz"
      }
    },
    {
      "type": "node",
      "id": 256041729,
      "lat": 47.2680021,
      "lon": 11.7430355,
      "tags": {
        "ele": "2506",
        "name": "Gilfert",
        "natural": "peak",
        "summit:cross": "yes",
        "wikidata": "Q582835",
        "wikipedia": "de:Gilfert"
      }
    },
    {
      "type": "node",
      "id": 256041731,
      "lat": 47.1732212,
      "lon": 10.4893047,
      "tags": {
        "ele": "2945",
        "name": "Gatschkopf",
        "natural": "peak",
        "wikidata": "Q875867",
        "wikipedia": "de:Gatschkopf"
      }
    },
    {
      "type": "node",
      "id": 256041732,
      "lat": 46.9612577,
      "lon": 12.7256949,
      "tags": {
        "ele": "3206",
        "name": "Glödis",
        "natural": "peak",
        "summit:cross": "yes",
        "wikidata": "Q1532697",
        "wikipedia": "de:Glödis"
      }
    },
    {
      "type": "node",
      "id": 256041736,
      "lat": 47.0931708,
      "lon": 12.3085855,
      "tags": {
        "alt_name": "Obersulzbacher Venediger",
        "ele": "3360",
        "name": "Großer Geiger",
        "natural": "peak",
        "old_name": "Heiliggeistkogel",
        "wikidata": "Q1548686",
        "wikipedia": "de:Großer Geiger"
      }
    },
    {
      "type": "node",
      "id": 256041738,
      "lat": 47.0776381,
      "lon": 12.6885440,
      "tags": {
        "ele": "3721",
        "name": "Glocknerwand",
        "natural": "peak",
        "wikidata": "Q688445",
        "wikipedia": "de:Glocknerwand"
      }
    },
    {
      "type": "node",
      "id": 256041740,
      "lat": 47.1092545,
      "lon": 12.3457321,
      "tags": {
        "ele": "3662",
        "name": "Großvenediger",
        "natural": "peak",
        "prominence": "1199",
        "summit:cross": "yes",
        "wikidata": "Q697907",
        "wikipedia": "de:Großvenediger"
      }
    },
    {
      "type": "node",
      "id": 256041742,
      "lat": 47.2075977,
      "lon": 11.5283837,
      "tags": {
        "ele": "2677",
        "name": "Glungezer",
        "natural": "peak",
        "summit:cross": "yes",
        "wikidata": "Q671146",
        "wikipedia": "de:Glungezer"
      }
    },
    {
      "type": "node",
      "id": 256041751,
      "lat": 47.3141753,
      "lon": 10.7328934,
      "tags": {
        "ele": "2639",
        "name": "Heiterwand",
        "natural": "peak",
        "prominence": "744",
        "wikidata": "Q1601397",
        "wikipedia": "de:Heiterwand"
      }
    },
    {
      "type": "node",
      "id": 256041755,
      "lat": 47.1012558,
      "lon": 11.0226228,
      "tags": {
        "ele": "3287",
        "name": "Breiter Grieskogel",
        "natural": "peak",
        "note": "nach dem Schild am Gipfelkreuz Schreibweise mit s: Breiter Grieskogel",
        "wikidata": "Q873513",
        "wikipedia": "de:Breiter Grießkogel"
      }
    },
    {
      "type": "node",
      "id": 256041782,
      "lat": 47.3961111,
      "lon": 11.0758333,
      "tags": {
        "ele": "2670",
        "name": "Hinterreintalschrofen",
        "natural": "peak",
        "wikidata": "Q515359",
        "wikipedia": "de:Hinterreintalschrofen"
      }
    },
    {
      "type": "node",
      "id": 256041783,
      "lat": 47.0438442,
      "lon": 11.2896304,
      "tags": {
        "ele": "3277",
        "name": "Habicht",
        "natural": "peak",
        "wikidata": "Q613740",
        "wikipedia": "de:Habicht (Berg)"
      }
    },
    {
      "type": "node",
      "id": 256041792,
      "lat": 46.9426141,
      "lon": 12.6982049,
      "tags": {
        "ele": "3240",
        "name": "Hochschober",
        "natural": "peak",
        "summit:cross": "yes",
        "wikidata": "Q1622049",
        "wikipedia": "de:Hochschober"
      }
    },
    {
      "type": "node",
      "id": 256041798,
      "lat": 46.8588786,
      "lon": 10.8107247,
      "tags": {
        "ele": "3334",
        "ele:source": "GPS",
        "name": "Hintergraslspitzen",
        "natural": "peak",
        "source": "survey",
        "summit:cross": "no",
        "summit:register": "no",
        "wikidata": "Q1248271",
        "wikipedia": "de:Hintergraslspitzen"
      }
    },
    {
      "type": "node",
      "id": 256041813,
      "lat": 46.9259999,
      "lon": 11.1078766,
      "tags": {
        "ele": "3143",
        "name": "Jochköpfl",
        "name:de": "Jochköpfl",
        "name:it": "Corno del Passo",
        "natural": "peak",
        "wikidata": "Q1646318",
        "wikipedia": "de:Jochköpfl"
      }
    },
    {
      "type": "node",
      "id": 256041817,
      "lat": 47.2674515,
      "lon": 10.6517200,
      "tags": {
        "alt_name": "Muttekopf",
        "ele": "2774",
        "name": "Imster Muttekopf",
        "natural": "peak",
        "wikidata": "Q873805",
        "wikipedia": "de:Muttekopf (Parzinn)"
      }
    },
    {
      "type": "node",
      "id": 256041825,
      "lat": 47.1704527,
      "lon": 10.9697703,
      "tags": {
        "ele": "3010",
        "name": "Hochreichkopf",
        "natural": "peak",
        "source": "GPS; basemap.at",
        "wikidata": "Q1622011",
        "wikipedia": "de:Hochreichkopf"
      }
    },
    {
      "type": "node",
      "id": 256041827,
      "lat": 46.8812740,
      "lon": 10.7939374,
      "tags": {
        "ele": "3539",
        "name": "Hochvernagtspitze",
        "natural": "peak",
        "wikidata": "Q672944",
        "wikipedia": "de:Hochvernagtspitze"
      }
    },
    {
      "type": "node",
      "id": 256041828,
      "lat": 47.3673266,
      "lon": 11.6179990,
      "tags": {
        "ele": "2546",
        "name": "Hochnissl",
        "natural": "peak",
        "wikidata": "Q873968",
        "wikipedia": "de:Hochnissl"
      }
    },
    {
      "type": "node",
      "id": 256041842,
      "lat": 46.7654482,
      "lon": 11.0222673,
      "tags": {
        "alt_name:de": "Hohe Wilde",
        "ele": "3482",
        "name": "Hochwilde - Cima Altissima",
        "name:de": "Hochwilde",
        "name:it": "Cima Altissima",
        "natural": "peak",
        "summit:cross": "yes",
        "wikidata": "Q668470",
        "wikipedia": "de:Hochwilde"
      }
    },
    {
      "type": "node",
      "id": 256041848,
      "lat": 46.6755556,
      "lon": 12.5241667,
      "tags": {
        "ele": "2689",
        "name": "Große Kinigat / Monte Cavallino",
        "name:de": "Große Kinigat",
        "name:it": "Monte Cavallino",
        "natural": "peak",
        "summit:cross": "yes",
        "summit:register": "yes",
        "wikidata": "Q675922",
        "wikipedia": "it:Monte Cavallino"
      }
    },
    {
      "type": "node",
      "id": 256041853,
      "lat": 46.9655830,
      "lon": 10.7941330,
      "tags": {
        "ele": "3253",
        "name": "K2",
        "natural": "peak",
        "wikidata": "Q872294",
        "wikipedia": "de:K2 (Ötztaler Alpen)"
      }
    },
    {
      "type": "node",
      "id": 256041855,
      "lat": 47.0865075,
      "lon": 10.1382648,
      "tags": {
        "ele": "2896",
        "name": "Kaltenberg",
        "natural": "peak",
        "wikidata": "Q1722654",
        "wikipedia": "de:Kaltenberg (Verwallgruppe)"
      }
    },
    {
      "type": "node",
      "id": 256041874,
      "lat": 46.9510594,
      "lon": 12.7623659,
      "tags": {
        "ele": "3081",
        "name": "Keeskopf",
        "natural": "peak",
        "source:position": "data.ktn.gv.at",
        "wikidata": "Q1737766",
        "wikipedia": "de:Keeskopf"
      }
    },
    {
      "type": "node",
      "id": 256041881,
      "lat": 47.0467322,
      "lon": 12.3591005,
      "tags": {
        "ele": "3155",
        "name": "Kreuzspitze",
        "natural": "peak",
        "wikidata": "Q872331",
        "wikipedia": "de:Kreuzspitze (Venedigergruppe)"
      }
    },
    {
      "type": "node",
      "id": 256041882,
      "lat": 47.2514939,
      "lon": 11.9826003,
      "tags": {
        "ele": "2558",
        "name": "Kreuzjoch",
        "natural": "peak",
        "prominence": "1051",
        "summit:cross": "yes",
        "wikidata": "Q13668",
        "wikipedia": "de:Kreuzjoch (Kitzbüheler Alpen)"
      }
    },
    {
      "type": "node",
      "id": 256041888,
      "lat": 47.0493651,
      "lon": 12.2592370,
      "tags": {
        "ele": "3373",
        "name": "Nördliche Malhamspitz",
        "natural": "peak",
        "wikidata": "Q1887276",
        "wikipedia": "de:Malhamspitzen"
      }
    },
    {
      "type": "node",
      "id": 256041890,
      "lat": 46.7711488,
      "lon": 10.9107249,
      "tags": {
        "ele": "3555",
        "name": "Östliche Marzellspitze",
        "natural": "peak",
        "wikidata": "Q662863",
        "wikipedia": "de:Marzellspitzen"
      }
    },
    {
      "type": "node",
      "id": 256041891,
      "lat": 47.3151441,
      "lon": 10.3744065,
      "tags": {
        "ele": "2610",
        "name": "Marchspitze",
        "natural": "peak",
        "ref:avf": "1614",
        "source": "survey",
        "wikidata": "Q1766896",
        "wikipedia": "de:Marchspitze"
      }
    },
    {
      "type": "node",
      "id": 256041896,
      "lat": 46.9759022,
      "lon": 12.3550378,
      "tags": {
        "ele": "3098",
        "name": "Lasörling",
        "natural": "peak",
        "wikidata": "Q1631332",
        "wikipedia": "de:Lasörling"
      }
    },
    {
      "type": "node",
      "id": 256041918,
      "lat": 46.8163889,
      "lon": 10.8700000,
      "tags": {
        "ele": "3455",
        "name": "Kreuzspitze",
        "natural": "peak",
        "wikidata": "Q683585",
        "wikipedia": "de:Kreuzspitze (Ötztaler Alpen)"
      }
    },
    {
      "type": "node",
      "id": 256041920,
      "lat": 47.0497452,
      "lon": 10.9041204,
      "tags": {
        "ele": "3110",
        "name": "Luibiskogel",
        "natural": "peak",
        "source": "GPS; basemap.at",
        "wikidata": "Q662888",
        "wikipedia": "de:Luibiskogel"
      }
    },
    {
      "type": "node",
      "id": 256041930,
      "lat": 47.3955556,
      "lon": 11.1038889,
      "tags": {
        "ele": "2523",
        "name": "Oberreintalschrofen",
        "natural": "peak",
        "wikidata": "Q873153",
        "wikipedia": "de:Oberreintalschrofen"
      }
    },
    {
      "type": "node",
      "id": 256041936,
      "lat": 46.9335443,
      "lon": 10.8718085,
      "tags": {
        "ele": "3162",
        "name": "Mittagskogel",
        "natural": "peak",
        "summit:cross": "yes",
        "wikidata": "Q871984",
        "wikipedia": "de:Mittagskogel (Pitztal)"
      }
    },
    {
      "type": "node",
      "id": 256041950,
      "lat": 47.0027293,
      "lon": 11.0622815,
      "tags": {
        "ele": "3359",
        "name": "Wilde Leck",
        "natural": "peak",
        "source": "GPS",
        "wikidata": "Q871961",
        "wikipedia": "de:Wilde Leck"
      }
    },
    {
      "type": "node",
      "id": 256041952,
      "lat": 47.2801709,
      "lon": 10.2760287,
      "tags": {
        "ele": "2651",
        "name": "Hohes Licht",
        "natural": "peak",
        "prominence": "680",
        "ref:avf": "884",
        "summit:cross": "yes",
        "summit:register": "yes",
        "wikidata": "Q524774",
        "wikipedia": "de:Hohes Licht"
      }
    },
    {
      "type": "node",
      "id": 256041959,
      "lat": 46.7830059,
      "lon": 10.9084967,
      "tags": {
        "ele": "3528",
        "name": "Mutmalspitze",
        "natural": "peak",
        "source": "estimated from height lines",
        "wikidata": "Q635889",
        "wikipedia": "de:Mutmalspitze"
      }
    },
    {
      "type": "node",
      "id": 256041973,
      "lat": 47.0313345,
      "lon": 11.8650512,
      "tags": {
        "ele": "3285",
        "name": "Großer Mörchner",
        "natural": "peak",
        "wikidata": "Q1548799",
        "wikipedia": "de:Großer Mörchner"
      }
    },
    {
      "type": "node",
      "id": 256041976,
      "lat": 47.3462065,
      "lon": 11.0812091,
      "tags": {
        "ele": "2592",
        "name": "Hohe Munde Ostgipfel",
        "natural": "peak",
        "wikidata": "Q389939",
        "wikipedia": "de:Hohe Munde"
      }
    },
    {
      "type": "node",
      "id": 256041987,
      "lat": 46.8467940,
      "lon": 10.9591333,
      "tags": {
        "ele": "3549",
        "name": "Großer Ramolkogel",
        "natural": "peak",
        "source": "basemap.at",
        "wikidata": "Q663547",
        "wikipedia": "de:Ramolkogel"
      }
    },
    {
      "type": "node",
      "id": 256041991,
      "lat": 47.2043040,
      "lon": 11.7508806,
      "tags": {
        "ele": "2762",
        "name": "Rastkogel",
        "natural": "peak",
        "wikidata": "Q505144",
        "wikipedia": "de:Rastkogel"
      }
    },
    {
      "type": "node",
      "id": 256041996,
      "lat": 46.9157491,
      "lon": 12.7123631,
      "tags": {
        "ele": "3064",
        "name": "Hoher Prijakt",
        "natural": "peak",
        "wikidata": "Q2109676",
        "wikipedia": "de:Prijakt"
      }
    },
    {
      "type": "node",
      "id": 256042004,
      "lat": 47.1008482,
      "lon": 12.3641464,
      "tags": {
        "ele": "3559",
        "name": "Rainerhorn",
        "natural": "peak",
        "wikidata": "Q874774",
        "wikipedia": "de:Rainerhorn"
      }
    },
    {
      "type": "node",
      "id": 256042007,
      "lat": 46.9816406,
      "lon": 10.9012492,
      "tags": {
        "ele": "3345",
        "name": "Puitkogel",
        "natural": "peak",
        "source": "estimated from height lines",
        "wikidata": "Q675846",
        "wikipedia": "de:Puitkogel"
      }
    },
    {
      "type": "node",
      "id": 256042009,
      "lat": 46.8928601,
      "lon": 10.1115262,
      "tags": {
        "ele": "2934",
        "name": "Hohes Rad",
        "natural": "peak",
        "wikidata": "Q1623986",
        "wikipedia": "de:Hohes Rad (Silvretta)"
      }
    },
    {
      "type": "node",
      "id": 256042739,
      "lat": 47.1159685,
      "lon": 10.3709728,
      "tags": {
        "ele": "3166",
        "name": "Hoher Riffler (Süd)",
        "natural": "peak",
        "wikidata": "Q688775",
        "wikipedia": "de:Hoher Riffler (Verwallgruppe)"
      }
    },
    {
      "type": "node",
      "id": 256042740,
      "lat": 47.0813264,
      "lon": 11.7043291,
      "tags": {
        "ele": "3231",
        "name": "Hoher Riffler",
        "natural": "peak",
        "prominence": "1341",
        "wikidata": "Q685588",
        "wikipedia": "de:Hoher Riffler (Zillertaler Alpen)"
      }
    },
    {
      "type": "node",
      "id": 256042742,
      "lat": 47.0914708,
      "lon": 12.6685891,
      "tags": {
        "alt_name": "Romariswandkopf",
        "ele": "3511",
        "name": "Romariswandköpfe",
        "name:ru": "Ромарисванд-Копф",
        "natural": "peak",
        "source:position": "data.ktn.gv.at",
        "wikidata": "Q874064",
        "wikipedia": "de:Romariswandkopf"
      }
    },
    {
      "type": "node",
      "id": 256042743,
      "lat": 47.0501914,
      "lon": 12.2876843,
      "tags": {
        "ele": "2749",
        "name": "Rostocker Eck",
        "natural": "peak",
        "wikidata": "Q2167856",
        "wikipedia": "de:Rostocker Eck"
      }
    },
    {
      "type": "node",
      "id": 256042745,
      "lat": 47.0397249,
      "lon": 12.3498374,
      "tags": {
        "ele": "2820",
        "name": "Rote Säule",
        "natural": "peak",
        "wikidata": "Q2168259",
        "wikipedia": "de:Rote Säule (Wallhornkamm)"
      }
    },
    {
      "type": "node",
      "id": 256042746,
      "lat": 46.9787875,
      "lon": 12.7389557,
      "tags": {
        "ele": "3281",
        "name": "Roter Knopf",
        "natural": "peak",
        "summit:cross": "yes",
        "wikidata": "Q1635399",
        "wikipedia": "de:Roter Knopf"
      }
    },
    {
      "type": "node",
      "id": 256042749,
      "lat": 47.0397464,
      "lon": 11.1431616,
      "tags": {
        "ele": "3474",
        "name": "Ruderhofspitze",
        "natural": "peak",
        "source": "survey",
        "wikidata": "Q672988",
        "wikipedia": "de:Ruderhofspitze"
      }
    },
    {
      "type": "node",
      "id": 256042756,
      "lat": 47.0508432,
      "lon": 10.2696151,
      "tags": {
        "ele": "3039",
        "name": "Saumspitze",
        "natural": "peak",
        "source": "GPS",
        "wikidata": "Q676445",
        "wikipedia": "de:Saumspitze"
      }
    },
    {
      "type": "node",
      "id": 256042757,
      "lat": 46.8017625,
      "lon": 10.9590789,
      "tags": {
        "ele": "3537",
        "name": "Schalfkogel",
        "natural": "peak",
        "source": "basemap.at",
        "wikidata": "Q671590",
        "wikipedia": "de:Schalfkogel"
      }
    },
    {
      "type": "node",
      "id": 256042760,
      "lat": 46.9784524,
      "lon": 11.1156801,
      "tags": {
        "ele": "3332",
        "name": "Schaufelspitze",
        "natural": "peak",
        "wikidata": "Q616391",
        "wikipedia": "de:Schaufelspitze (Stubaier Alpen)"
      }
    },
    {
      "type": "node",
      "id": 256042763,
      "lat": 47.2492343,
      "lon": 10.6158298,
      "tags": {
        "ele": "2827",
        "name": "Große Schlenkerspitze",
        "natural": "peak",
        "wikidata": "Q871997",
        "wikipedia": "de:Große Schlenkerspitze"
      }
    },
    {
      "type": "node",
      "id": 256042765,
      "lat": 47.0973174,
      "lon": 12.6600148,
      "tags": {
        "ele": "3476",
        "name": "Schneewinkelkopf",
        "natural": "peak",
        "source:ele": "basemap.at",
        "source:position": "data.ktn.gv.at",
        "wikidata": "Q569831",
        "wikipedia": "de:Schneewinkelkopf"
      }
    },
    {
      "type": "node",
      "id": 256042766,
      "lat": 47.0086080,
      "lon": 11.7731020,
      "tags": {
        "ele": "3133",
        "name": "Schönbichler Horn",
        "natural": "peak",
        "summit:cross": "yes",
        "summit:register": "yes",
        "wikidata": "Q1442233",
        "wikipedia": "de:Schönbichler Horn"
      }
    },
    {
      "type": "node",
      "id": 256042768,
      "lat": 47.4095968,
      "lon": 10.9699595,
      "tags": {
        "ele": "2875",
        "name": "Schneefernerkopf",
        "natural": "peak",
        "wikidata": "Q679080",
        "wikipedia": "de:Schneefernerkopf"
      }
    },
    {
      "type": "node",
      "id": 256042769,
      "lat": 47.0547828,
      "lon": 11.1117885,
      "tags": {
        "ele": "3392",
        "name": "Schrandele",
        "natural": "peak",
        "source": "basemap.at",
        "wikidata": "Q596016",
        "wikipedia": "de:Schrandele"
      }
    },
    {
      "type": "node",
      "id": 256042770,
      "lat": 47.0442042,
      "lon": 11.0988940,
      "tags": {
        "ele": "3497",
        "name": "Schrankogel",
        "natural": "peak",
        "summit:cross": "yes",
        "wikidata": "Q684613",
        "wikipedia": "de:Schrankogel"
      }
    },
    {
      "type": "node",
      "id": 256042771,
      "lat": 47.1221740,
      "lon": 11.0943958,
      "tags": {
        "ele": "3002",
        "name": "Schöntalspitze",
        "natural": "peak",
        "source": "GPS",
        "summit:cross": "yes",
        "wikidata": "Q2259490",
        "wikipedia": "de:Schöntalspitze"
      }
    },
    {
      "type": "node",
      "id": 256042788,
      "lat": 47.0066667,
      "lon": 10.7936111,
      "tags": {
        "ele": "3379",
        "name": "Schwabenkopf",
        "natural": "peak",
        "source": "estimated from height lines",
        "wikidata": "Q874009",
        "wikipedia": "de:Schwabenkopf"
      }
    },
    {
      "type": "node",
      "id": 256042791,
      "lat": 46.8736111,
      "lon": 10.6191667,
      "tags": {
        "ele": "3063",
        "name": "Mittlerer Seekarkopf",
        "natural": "peak",
        "wikidata": "Q662843",
        "wikipedia": "de:Seekarköpfe"
      }
    },
    {
      "type": "node",
      "id": 256042792,
      "lat": 47.0334776,
      "lon": 10.7733950,
      "tags": {
        "ele": "2881",
        "name": "Schweikert",
        "natural": "peak",
        "source": "estimated from height lines",
        "summit:cross": "yes",
        "wikidata": "Q2255608",
        "wikipedia": "de:Schweikert (Kaunertal)"
      }
    },
    {
      "type": "node",
      "id": 256042801,
      "lat": 47.1239628,
      "lon": 11.3813481,
      "tags": {
        "alt_name": "Waldrastspitze",
        "ele": "2717",
        "name": "Serles",
        "natural": "peak",
        "summit:cross": "yes",
        "wikidata": "Q357751",
        "wikipedia": "de:Serles"
      }
    },
    {
      "type": "node",
      "id": 256042805,
      "lat": 46.9555555,
      "lon": 11.1647222,
      "tags": {
        "ele": "3444",
        "name": "Sonklarspitze - Cima di Malavalle",
        "name:de": "Sonklarspitze",
        "name:it": "Cima di Malavalle",
        "natural": "peak",
        "wikidata": "Q664190",
        "wikipedia": "de:Sonklarspitze"
      }
    },
    {
      "type": "node",
      "id": 256042813,
      "lat": 47.1090332,
      "lon": 11.0195215,
      "tags": {
        "ele": "3288",
        "name": "Strahlkogel",
        "natural": "peak",
        "wikidata": "Q577249",
        "wikipedia": "de:Strahlkogel"
      }
    },
    {
      "type": "node",
      "id": 256042816,
      "lat": 46.8292483,
      "lon": 10.9588303,
      "tags": {
        "ele": "3426",
        "name": "Hinterer Spiegelkogel",
        "natural": "peak",
        "wikidata": "Q664235",
        "wikipedia": "de:Spiegelkogel"
      }
    },
    {
      "type": "node",
      "id": 256042820,
      "lat": 47.0766394,
      "lon": 12.6916880,
      "tags": {
        "ele": "3680",
        "name": "Teufelshorn",
        "natural": "peak",
        "source:position": "data.ktn.gv.at",
        "wikidata": "Q875589",
        "wikipedia": "de:Teufelshorn (Glocknergruppe)"
      }
    },
    {
      "type": "node",
      "id": 256042823,
      "lat": 46.9831895,
      "lon": 11.0998049,
      "tags": {
        "ele": "3341",
        "name": "Stubaier Wildspitze",
        "natural": "peak",
        "wikidata": "Q222144",
        "wikipedia": "de:Stubaier Wildspitze"
      }
    },
    {
      "type": "node",
      "id": 256042831,
      "lat": 46.9956770,
      "lon": 11.1603469,
      "tags": {
        "ele": "2902",
        "name": "Großer Trögler",
        "natural": "peak",
        "wikidata": "Q616731",
        "wikipedia": "de:Großer Trögler"
      }
    },
    {
      "type": "node",
      "id": 256042835,
      "lat": 47.3368102,
      "lon": 10.4683884,
      "tags": {
        "ele": "2632",
        "name": "Urbeleskarspitze Ostgipfel",
        "natural": "peak",
        "ref:avf": "1686",
        "wikidata": "Q872308",
        "wikipedia": "de:Urbeleskarspitze"
      }
    },
    {
      "type": "node",
      "id": 256042837,
      "lat": 46.9232667,
      "lon": 10.2909586,
      "tags": {
        "ele": "2812",
        "name": "Piz Val Gronda",
        "natural": "peak",
        "wikidata": "Q21878883",
        "wikipedia": "de:Piz Val Gronda (Samnaungruppe)"
      }
    },
    {
      "type": "node",
      "id": 256042838,
      "lat": 46.8807563,
      "lon": 10.8735642,
      "tags": {
        "ele": "3554",
        "name": "Ötztaler Urkund",
        "natural": "peak",
        "wikidata": "Q307493",
        "wikipedia": "de:Ötztaler Urkund"
      }
    },
    {
      "type": "node",
      "id": 256042844,
      "lat": 47.3015941,
      "lon": 11.3334901,
      "tags": {
        "ele": "2596",
        "name": "Hohe Warte",
        "natural": "peak",
        "wikidata": "Q1552044",
        "wikipedia": "de:Hohe Warte (Karwendel)"
      }
    },
    {
      "type": "node",
      "id": 256042846,
      "lat": 47.1848898,
      "lon": 10.3671263,
      "tags": {
        "ele": "2889",
        "name": "Vorderseespitze",
        "natural": "peak",
        "source": "GPS",
        "wikidata": "Q508307",
        "wikipedia": "de:Vorderseespitze"
      }
    },
    {
      "type": "node",
      "id": 256042847,
      "lat": 47.0034705,
      "lon": 10.8049490,
      "tags": {
        "ele": "3423",
        "name": "Verpeilspitze",
        "natural": "peak",
        "summit:cross": "yes",
        "wikidata": "Q600983",
        "wikipedia": "de:Verpeilspitze"
      }
    },
    {
      "type": "node",
      "id": 256042848,
      "lat": 47.1067339,
      "lon": 11.1653884,
      "tags": {
        "ele": "3087",
        "name": "Hohe Villerspitze",
        "natural": "peak",
        "wikidata": "Q1623545",
        "wikipedia": "de:Hohe Villerspitze"
      }
    },
    {
      "type": "node",
      "id": 256042852,
      "lat": 47.1040249,
      "lon": 12.4594679,
      "tags": {
        "ele": "3021",
        "name": "Wildenkogel",
        "natural": "peak",
        "wikidata": "Q1723033",
        "wikipedia": "de:Wildenkogel"
      }
    },
    {
      "type": "node",
      "id": 256042853,
      "lat": 46.9688703,
      "lon": 11.7470355,
      "tags": {
        "ele": "3371",
        "name": "Hoher Weißzint - Punta Bianca",
        "name:de": "Hoher Weißzint",
        "name:it": "Punta Bianca",
        "natural": "peak",
        "wikidata": "Q662994",
        "wikipedia": "it:Punta Bianca (Alpi della Zillertal)"
      }
    },
    {
      "type": "node",
      "id": 256042854,
      "lat": 47.4014252,
      "lon": 10.9703868,
      "tags": {
        "ele": "2747",
        "name": "Wetterspitzen",
        "natural": "peak",
        "wikidata": "Q470068",
        "wikipedia": "de:Wetterspitzen"
      }
    },
    {
      "type": "node",
      "id": 256042862,
      "lat": 46.8913889,
      "lon": 10.6152778,
      "tags": {
        "ele": "3015",
        "name": "Wildnörderer",
        "natural": "peak",
        "wikidata": "Q872031",
        "wikipedia": "de:Wildnörderer"
      }
    },
    {
      "type": "node",
      "id": 256042864,
      "lat": 47.1406824,
      "lon": 10.8266979,
      "tags": {
        "ele": "2974",
        "name": "Wildgrat",
        "natural": "peak",
        "source": "GPS",
        "wikidata": "Q871932",
        "wikipedia": "de:Wildgrat"
      }
    },
    {
      "type": "node",
      "id": 256042869,
      "lat": 47.0504335,
      "lon": 11.8378314,
      "tags": {
        "ele": "3062",
        "name": "Zsigmondyspitze",
        "natural": "peak",
        "source": "survey",
        "wikidata": "Q227318",
        "wikipedia": "de:Zsigmondyspitze"
      }
    },
    {
      "type": "node",
      "id": 256042870,
      "lat": 47.1191845,
      "lon": 11.0860454,
      "tags": {
        "ele": "3173",
        "name": "Grubenwand",
        "natural": "peak",
        "wikidata": "Q1550229",
        "wikipedia": "de:Grubenwand"
      }
    },
    {
      "type": "node",
      "id": 256042875,
      "lat": 47.0766668,
      "lon": 11.2997222,
      "tags": {
        "ele": "2562",
        "name": "Zwölferspitze",
        "natural": "peak",
        "wikidata": "Q245225",
        "wikipedia": "de:Zwölferspitze (Stubaier Alpen)"
      }
    },
    {
      "type": "node",
      "id": 256042876,
      "lat": 46.9556731,
      "lon": 12.5152465,
      "tags": {
        "ele": "2776",
        "name": "Zunig",
        "natural": "peak",
        "wikidata": "Q230157",
        "wikipedia": "de:Zunig"
      }
    },
    {
      "type": "node",
      "id": 256057458,
      "lat": 47.0553121,
      "lon": 10.9969684,
      "tags": {
        "ele": "2813",
        "name": "Gamskogel",
        "natural": "peak",
        "summit:cross": "yes",
        "wikidata": "Q1493291",
        "wikipedia": "de:Gamskogel (Sulztalkamm)"
      }
    },
    {
      "type": "node",
      "id": 262273912,
      "lat": 46.8641207,
      "lon": 10.1264589,
      "tags": {
        "ele": "2851",
        "name": "Vermuntkopf",
        "natural": "peak"
      }
    },
    {
      "type": "node",
      "id": 269556205,
      "lat": 47.5496154,
      "lon": 12.6282257,
      "tags": {
        "alt_name": "Hinterhorn",
        "ele": "2506",
        "name": "Mitterhorn",
        "natural": "peak",
        "summit:cross": "yes",
        "wikidata": "Q1940581",
        "wikipedia": "de:Mitterhorn (Loferer Steinberge)"
      }
    },
    {
      "type": "node",
      "id": 269562213,
      "lat": 47.1461011,
      "lon": 12.0930285,
      "tags": {
        "ele": "3210",
        "name": "Schneekarspitze",
        "natural": "peak"
      }
    },
    {
      "type": "node",
      "id": 269566534,
      "lat": 47.1229625,
      "lon": 12.2430300,
      "tags": {
        "ele": "3290",
        "name": "Schlieferspitze",
        "natural": "peak",
        "wikidata": "Q2239662",
        "wikipedia": "de:Schlieferspitze"
      }
    },
    {
      "type": "node",
      "id": 277426950,
      "lat": 47.1164873,
      "lon": 10.3651533,
      "tags": {
        "ele": "3014",
        "name": "Kleiner Riffler",
        "natural": "peak",
        "source": "GPS"
      }
    },
    {
      "type": "node",
      "id": 277426951,
      "lat": 47.1142889,
      "lon": 10.3677235,
      "tags": {
        "ele": "3129",
        "name": "Blankahorn",
        "natural": "peak",
        "source": "GPS",
        "wikidata": "Q21873563"
      }
    },
    {
      "type": "node",
      "id": 277610885,
      "lat": 47.1912856,
      "lon": 12.1366432,
      "tags": {
        "ele": "2519",
        "name": "Seekarscharte",
        "natural": "peak"
      }
    },
    {
      "type": "node",
      "id": 279905810,
      "lat": 47.0670103,
      "lon": 12.8608918,
      "tags": {
        "ele": "2606",
        "name": "Schareck",
        "name:ru": "Шарэкк",
        "natural": "peak",
        "source": "basemap.at",
        "source:position": "data.ktn.gv.at",
        "wikidata": "Q125939",
        "wikipedia": "de:Schareck"
      }
    },
    {
      "type": "node",
      "id": 281340178,
      "lat": 47.2556097,
      "lon": 10.4459620,
      "tags": {
        "ele": "2580",
        "name": "Ruitelspitze",
        "natural": "peak"
      }
    },
    {
      "type": "node",
      "id": 281340201,
      "lat": 47.2508184,
      "lon": 10.4649844,
      "tags": {
        "ele": "2594",
        "name": "Zwölferspitze",
        "natural": "peak"
      }
    },
    {
      "type": "node",
      "id": 281604035,
      "lat": 47.0188710,
      "lon": 12.6074600,
      "tags": {
        "ele": "2575",
        "name": "Blauspitze",
        "natural": "peak"
      }
    },
    {
      "type": "node",
      "id": 281759452,
      "lat": 46.9459145,
      "lon": 12.4186206,
      "tags": {
        "ele": "2653",
        "name": "Speikboden",
        "natural": "peak",
        "summit:cross": "yes",
        "wikidata": "Q2308674",
        "wikipedia": "de:Speikboden (Venedigergruppe)"
      }
    },
    {
      "type": "node",
      "id": 281759496,
      "lat": 46.9472845,
      "lon": 12.4273937,
      "tags": {
        "ele": "2725",
        "name": "Donnerstein",
        "natural": "peak",
        "wikidata": "Q1241937",
        "wikipedia": "de:Donnerstein (Berg)"
      }
    },
    {
      "type": "node",
      "id": 283326629,
      "lat": 46.8660274,
      "lon": 10.1698510,
      "tags": {
        "ele": "2693",
        "name": "Rußkopf",
        "natural": "peak",
        "summit:cross": "yes",
        "summit:register": "yes"
      }
    },
    {
      "type": "node",
      "id": 284780608,
      "lat": 47.2324220,
      "lon": 10.1021730,
      "tags": {
        "ele": "2544",
        "ele:müa": "2544",
        "ele:source": "Wikipedia",
        "name": "Mohnenfluh",
        "natural": "peak",
        "summit:cross": "yes",
        "summit:register": "yes",
        "wikidata": "Q1254635",
        "wikipedia": "de:Mohnenfluh"
      }
    },
    {
      "type": "node",
      "id": 286472390,
      "lat": 47.2982864,
      "lon": 10.6746367,
      "tags": {
        "ele": "2544",
        "name": "Maldongrat",
        "natural": "peak",
        "source": "survey(2008-07,garmin)"
      }
    },
    {
      "type": "node",
      "id": 288112683,
      "lat": 47.4626960,
      "lon": 13.6676630,
      "tags": {
        "ele": "2536",
        "massif": "Dachstein",
        "name": "Landfriedstein",
        "natural": "peak",
        "wikidata": "Q15057341"
      }
    },
    {
      "type": "node",
      "id": 288112891,
      "lat": 47.2961920,
      "lon": 13.8171730,
      "tags": {
        "ele": "2702",
        "man_made": "summit_cross",
        "massif": "Schladminger Tauern",
        "name": "Waldhorn",
        "natural": "peak",
        "summit:cross": "yes",
        "wikidata": "Q1671150",
        "wikimedia_commons": "Category:Waldhorn",
        "wikipedia": "de:Waldhorn (Schladminger Tauern)"
      }
    },
    {
      "type": "node",
      "id": 288112919,
      "lat": 47.2932029,
      "lon": 13.8253430,
      "tags": {
        "ele": "2681",
        "massif": "Schladminger Tauern",
        "name": "Kieseck",
        "natural": "peak",
        "summit:cross": "yes"
      }
    },
    {
      "type": "node",
      "id": 290217991,
      "lat": 47.1723537,
      "lon": 10.3153743,
      "tags": {
        "ele": "2577",
        "name": "Bergleskopf",
        "natural": "peak"
      }
    },
    {
      "type": "node",
      "id": 290267150,
      "lat": 47.2230014,
      "lon": 11.1538119,
      "tags": {
        "alt_name": "Rosskogel",
        "ele": "2646",
        "name": "Roßkogel",
        "natural": "peak",
        "summit:cross": "yes",
        "wikidata": "Q15126441",
        "wikipedia": "de:Roßkogel (Stubaier Alpen)"
      }
    },
    {
      "type": "node",
      "id": 290267206,
      "lat": 47.2198453,
      "lon": 11.1483730,
      "tags": {
        "ele": "2640",
        "name": "Weißstein",
        "natural": "peak",
        "summit:cross": "yes"
      }
    },
    {
      "type": "node",
      "id": 291405646,
      "lat": 47.2675430,
      "lon": 13.9984410,
      "tags": {
        "ele": "2507",
        "massif": "Schladminger Tauern",
        "name": "Süssleiteck",
        "natural": "peak"
      }
    },
    {
      "type": "node",
      "id": 292025483,
      "lat": 47.0925558,
      "lon": 12.2837771,
      "tags": {
        "ele": "3311",
        "name": "Hinterer Maurerkeeskopf",
        "natural": "peak",
        "wikidata": "Q21871699",
        "wikipedia": "de:Hinterer Maurerkeeskopf"
      }
    },
    {
      "type": "node",
      "id": 292025497,
      "lat": 47.1248757,
      "lon": 12.5922297,
      "tags": {
        "ele": "3086",
        "name": "Granatspitze",
        "natural": "peak",
        "wikidata": "Q699001",
        "wikipedia": "de:Granatspitze"
      }
    },
    {
      "type": "node",
      "id": 292160947,
      "lat": 47.0135928,
      "lon": 10.7647777,
      "tags": {
        "ele": "2532",
        "name": "Mooskopf",
        "natural": "peak",
        "wikidata": "Q1947002",
        "wikipedia": "de:Mooskopf (Kaunertal)"
      }
    },
    {
      "type": "node",
      "id": 292162058,
      "lat": 47.0460855,
      "lon": 10.7196525,
      "tags": {
        "created_by": "Potlatch 0.10b",
        "ele": "2616",
        "name": "Mittags Kogel",
        "natural": "peak"
      }
    },
    {
      "type": "node",
      "id": 292162062,
      "lat": 47.0398856,
      "lon": 10.7180303,
      "tags": {
        "created_by": "Potlatch 0.10b",
        "ele": "2702",
        "name": "Roter Schrofen",
        "natural": "peak"
      }
    },
    {
      "type": "node",
      "id": 292834084,
      "lat": 47.2125853,
      "lon": 10.3382361,
      "tags": {
        "ele": "2563",
        "name": "Guflekopf",
        "natural": "peak",
        "source": "GPS"
      }
    },
    {
      "type": "node",
      "id": 292834261,
      "lat": 47.2489227,
      "lon": 10.4815965,
      "tags": {
        "ele": "2539",
        "name": "Seebleskarspitze",
        "natural": "peak",
        "source": "estimated from NASA height data"
      }
    },
    {
      "type": "node",
      "id": 292834300,
      "lat": 47.2084473,
      "lon": 10.3372388,
      "tags": {
        "ele": "2527",
        "name": "Guflespitze",
        "natural": "peak",
        "source": "GPS"
      }
    },
    {
      "type": "node",
      "id": 292834428,
      "lat": 47.3115127,
      "lon": 10.3558259,
      "tags": {
        "ele": "2656",
        "name": "Großer Krottenkopf",
        "natural": "peak",
        "prominence": "996",
        "ref:avf": "1588",
        "summit:cross": "yes",
        "wikidata": "Q661135",
        "wikipedia": "de:Großer Krottenkopf"
      }
    },
    {
      "type": "node",
      "id": 293111344,
      "lat": 46.8885771,
      "lon": 10.0560878,
      "tags": {
        "ele": "2957",
        "name": "Verhupfspitze",
        "natural": "peak"
      }
    },
    {
      "type": "node",
      "id": 293234029,
      "lat": 46.8643969,
      "lon": 10.0854312,
      "tags": {
        "ele": "3223",
        "ele:müa": "3223",
        "ele:source": "Wikipedia",
        "name": "Schneeglocke",
        "natural": "peak",
        "wikidata": "Q21878980",
        "wikipedia": "de:Schneeglocke (Silvretta)"
      }
    },
    {
      "type": "node",
      "id": 293238266,
      "lat": 46.8441236,
      "lon": 10.1188918,
      "tags": {
        "alt_name": "Piz Buin",
        "ele": "3312",
        "ele:müa": "3312",
        "ele:source": "Wikipedia",
        "name": "Piz Buin",
        "natural": "peak",
        "source": "GPS",
        "wikidata": "Q16588",
        "wikipedia": "de:Piz Buin"
      }
    },
    {
      "type": "node",
      "id": 293486959,
      "lat": 46.8510186,
      "lon": 10.1449726,
      "tags": {
        "ele": "3197",
        "ele:müa": "3197",
        "ele:müm": "3197",
        "ele:source": "VoGIS",
        "name": "Dreiländerspitze",
        "natural": "peak",
        "source": "GPS",
        "wikidata": "Q673909",
        "wikipedia": "de:Dreiländerspitze"
      }
    },
    {
      "type": "node",
      "id": 293762531,
      "lat": 46.7981060,
      "lon": 10.8519392,
      "tags": {
        "ele": "3355",
        "name": "Saykogel",
        "natural": "peak",
        "source": "basemap.at",
        "wikidata": "Q875906",
        "wikipedia": "de:Saykogel"
      }
    },
    {
      "type": "node",
      "id": 294473828,
      "lat": 46.9288156,
      "lon": 10.0283028,
      "tags": {
        "ele": "2823",
        "name": "Hochmaderer",
        "natural": "peak",
        "wikidata": "Q1229699",
        "wikipedia": "de:Hochmaderer"
      }
    },
    {
      "type": "node",
      "id": 294474954,
      "lat": 46.8997480,
      "lon": 10.0329655,
      "tags": {
        "ele": "2783",
        "name": "Kleinlitzner",
        "natural": "peak"
      }
    },
    {
      "type": "node",
      "id": 294475218,
      "lat": 46.8864647,
      "lon": 10.0382915,
      "tags": {
        "alt_name": "Grosser Litzner",
        "ele": "3109",
        "ele:müa": "3109",
        "ele:source": "Wikipedia",
        "name": "Großlitzner",
        "natural": "peak",
        "source": "GPS",
        "wikidata": "Q669837",
        "wikipedia": "de:Großlitzner"
      }
    },
    {
      "type": "node",
      "id": 294931308,
      "lat": 46.8106424,
      "lon": 10.8626059,
      "tags": {
        "ele": "3338",
        "name": "Kreuzkogel",
        "natural": "peak"
      }
    },
    {
      "type": "node",
      "id": 295500021,
      "lat": 46.9816460,
      "lon": 11.1688116,
      "tags": {
        "created_by": "Merkaartor 0.12",
        "ele": "2822",
        "name": "Hundsheim",
        "natural": "peak",
        "tourism": "viewpoint"
      }
    },
    {
      "type": "node",
      "id": 295500450,
      "lat": 46.9761743,
      "lon": 11.1793053,
      "tags": {
        "ele": "3262",
        "name": "Aperer Freiger",
        "natural": "peak",
        "source": "basemap.at",
        "wikidata": "Q15783763",
        "wikipedia": "de:Aperer Freiger"
      }
    },
    {
      "type": "node",
      "id": 295702777,
      "lat": 46.9903287,
      "lon": 10.1378887,
      "tags": {
        "ele": "2653",
        "name": "Mittlere Fluhspitze",
        "natural": "peak",
        "summit:cross": "yes"
      }
    },
    {
      "type": "node",
      "id": 296296509,
      "lat": 47.1737789,
      "lon": 10.3955589,
      "tags": {
        "ele": "2624",
        "name": "Samspitze",
        "natural": "peak",
        "wikidata": "Q2217725",
        "wikipedia": "de:Samspitze (Lechtaler Alpen)"
      }
    },
    {
      "type": "node",
      "id": 301000755,
      "lat": 46.9496110,
      "lon": 12.7111294,
      "tags": {
        "ele": "3052",
        "name": "Debantgrat Südgipfel",
        "natural": "peak",
        "summit:cross": "yes"
      }
    },
    {
      "type": "node",
      "id": 301002578,
      "lat": 46.9129084,
      "lon": 12.7370675,
      "tags": {
        "ele": "2869",
        "name": "Kleine Rotspitze",
        "natural": "peak"
      }
    },
    {
      "type": "node",
      "id": 301247867,
      "lat": 46.9976521,
      "lon": 12.7228453,
      "tags": {
        "ele": "3119",
        "name": "Böses Weibl",
        "natural": "peak",
        "wikidata": "Q1020113",
        "wikipedia": "de:Böses Weibl"
      }
    },
    {
      "type": "node",
      "id": 301331558,
      "lat": 46.9920080,
      "lon": 12.7086900,
      "tags": {
        "ele": "3017",
        "name": "Tschadinhorn",
        "natural": "peak",
        "summit:cross": "yes",
        "wikidata": "Q21878789",
        "wikipedia": "de:Tschadinhorn"
      }
    },
    {
      "type": "node",
      "id": 302195036,
      "lat": 47.2006699,
      "lon": 10.4285634,
      "tags": {
        "ele": "2884",
        "name": "Freispitze",
        "natural": "peak",
        "source": "GPS",
        "wikidata": "Q461106",
        "wikipedia": "de:Freispitze"
      }
    },
    {
      "type": "node",
      "id": 302196701,
      "lat": 47.1713344,
      "lon": 10.2114127,
      "tags": {
        "ele": "2634",
        "name": "Erlispitze",
        "natural": "peak"
      }
    },
    {
      "type": "node",
      "id": 307300802,
      "lat": 46.6569759,
      "lon": 12.6906425,
      "tags": {
        "ele": "2524",
        "name": "Steinkarspitz / Monte Antola",
        "name:de": "Steinkarspitz",
        "name:it": "Monte Antola",
        "natural": "peak"
      }
    },
    {
      "type": "node",
      "id": 307310796,
      "lat": 47.0585157,
      "lon": 12.0594921,
      "tags": {
        "ele": "2893",
        "name": "Wagnerschneid Spitz",
        "name:de": "Wagnerschneid Spitz",
        "name:it": "Cima Triangolo",
        "natural": "peak"
      }
    },
    {
      "type": "node",
      "id": 307311105,
      "lat": 47.0691684,
      "lon": 12.2407453,
      "tags": {
        "alt_name": "Dreiherrenspitze",
        "ele": "3499",
        "name": "Dreiherrnspitze",
        "name:it": "Picco dei Tre Signori",
        "natural": "peak",
        "wikidata": "Q663943",
        "wikipedia": "de:Dreiherrnspitze"
      }
    },
    {
      "type": "node",
      "id": 309080619,
      "lat": 47.3438989,
      "lon": 10.4853737,
      "tags": {
        "ele": "2557",
        "name": "Wasserfallkarspitze",
        "natural": "peak",
        "ref:avf": "1693",
        "source": "GPS",
        "wikidata": "Q2550941",
        "wikipedia": "de:Wasserfallkarspitze"
      }
    },
    {
      "type": "node",
      "id": 309081479,
      "lat": 47.3027388,
      "lon": 10.3547490,
      "tags": {
        "ele": "2536",
        "name": "Ramstallkopf",
        "natural": "peak",
        "source": "GPS"
      }
    },
    {
      "type": "node",
      "id": 315130960,
      "lat": 46.8618921,
      "lon": 10.1115608,
      "tags": {
        "ele": "2579",
        "name": "Grüne Kuppe",
        "natural": "peak"
      }
    },
    {
      "type": "node",
      "id": 319571016,
      "lat": 46.9126255,
      "lon": 10.8613294,
      "tags": {
        "ele": "3440",
        "name": "Hinterer Brunnenkogel",
        "natural": "peak",
        "wikidata": "Q702055",
        "wikipedia": "de:Hinterer Brunnenkogel (Ötztaler Alpen)"
      }
    },
    {
      "type": "node",
      "id": 321139367,
      "lat": 47.2494100,
      "lon": 10.6262530,
      "tags": {
        "ele": "2609",
        "name": "Brunnkarspitze",
        "natural": "peak",
        "source": "estimated from NASA elevation data"
      }
    },
    {
      "type": "node",
      "id": 321139513,
      "lat": 47.2560050,
      "lon": 10.5680600,
      "tags": {
        "ele": "2602",
        "name": "Bockkarspitze",
        "natural": "peak",
        "source": "estimated from NASA elevation data"
      }
    },
    {
      "type": "node",
      "id": 321139520,
      "lat": 47.2606570,
      "lon": 10.5660820,
      "tags": {
        "ele": "2501",
        "name": "Nördliche Bockkarspitze",
        "natural": "peak"
      }
    },
    {
      "type": "node",
      "id": 321139533,
      "lat": 47.2675400,
      "lon": 10.5699120,
      "tags": {
        "ele": "2587",
        "name": "Tajaspitze",
        "natural": "peak",
        "source": "estimated from NASA elevation data"
      }
    },
    {
      "type": "node",
      "id": 321141574,
      "lat": 47.2458379,
      "lon": 11.0589533,
      "tags": {
        "ele": "2884",
        "name": "Rietzer Grießkogel",
        "natural": "peak",
        "prominence": "867",
        "wikidata": "Q761945",
        "wikipedia": "de:Rietzer Grießkogel"
      }
    },
    {
      "type": "node",
      "id": 321152315,
      "lat": 47.1742498,
      "lon": 10.8582572,
      "tags": {
        "alt_name": "Mitter Karkopf",
        "ele": "2606",
        "fixme": "der name  \"Mitter Karkopf \"scheint falsch zu sein,\nMittlerer Karkopf macht auch toponymisch mehr sinn, ich attributiere \"Mitter Karkopf\" als alt_name",
        "name": "Mittlerer Karkopf",
        "natural": "peak",
        "source": "https://image.jimcdn.com/app/cms/image/transf/dimension=910x10000:format=jpg/path/s49fdf7887b6f727d/image/ib27c873825447d14/version/1439805680/image.jpg",
        "wikidata": "Q2087700"
      }
    },
    {
      "type": "node",
      "id": 321152333,
      "lat": 47.1709232,
      "lon": 10.8463763,
      "tags": {
        "ele": "2686",
        "name": "Hoher Karkopf",
        "natural": "peak",
        "wikidata": "Q2222655"
      }
    },
    {
      "type": "node",
      "id": 321152372,
      "lat": 47.1816297,
      "lon": 10.8473682,
      "tags": {
        "ele": "2536",
        "name": "Blosse",
        "natural": "peak",
        "source": "estimated from height lines",
        "wikidata": "Q4420714"
      }
    },
    {
      "type": "node",
      "id": 321167470,
      "lat": 47.1411247,
      "lon": 10.8098194,
      "tags": {
        "ele": "2605",
        "name": "Schwendtkopf",
        "natural": "peak",
        "source": "estimated from height lines",
        "wikidata": "Q2072115"
      }
    },
    {
      "type": "node",
      "id": 321172720,
      "lat": 46.7861645,
      "lon": 10.7603513,
      "tags": {
        "ele": "3227",
        "name": "Teufelsegg - Cresta del Diavolo",
        "name:de": "Teufelsegg",
        "name:it": "Cresta del Diavolo",
        "natural": "peak",
        "source": "https://www.vivosuedtirol.com/it/sci-alpinismo/palla-bianca-val-senales/",
        "wikidata": "Q2853917"
      }
    },
    {
      "type": "node",
      "id": 321172873,
      "lat": 46.7659506,
      "lon": 10.8692095,
      "tags": {
        "ele": "3363",
        "name": "Kleiner Similaun - Piccolo Similaun",
        "name:de": "Kleiner Similaun",
        "name:it": "Piccolo Similaun",
        "natural": "peak",
        "source": "https://map.schweizmobil.ch"
      }
    },
    {
      "type": "node",
      "id": 321173133,
      "lat": 46.8203848,
      "lon": 11.0757044,
      "tags": {
        "ele": "3400",
        "name": "Liebener Spitze",
        "name:de": "Liebener Spitze",
        "name:it": "Cima della Chiesa",
        "natural": "peak",
        "summit:cross": "yes",
        "wikidata": "Q6543866",
        "wikipedia": "de:Liebenerspitze"
      }
    },
    {
      "type": "node",
      "id": 321173143,
      "lat": 46.8226327,
      "lon": 11.0833601,
      "tags": {
        "ele": "3282",
        "name": "Seeberspitz",
        "name:de": "Seeberspitz",
        "name:it": "Cima del Lago",
        "name:old": "Seewerspitze",
        "natural": "peak",
        "note": "Positionsangabe im GeoPortal Südtirol mehrdeutig (2. Angabe 200m östlich im Seitenkamm zur Essener Scharte)",
        "source": "GeoPortal Südtirol"
      }
    },
    {
      "type": "node",
      "id": 321173167,
      "lat": 46.8383484,
      "lon": 11.0703190,
      "tags": {
        "ele": "3304",
        "name": "Granatenkogel - Monte dei Granati",
        "name:de": "Granatenkogel",
        "name:it": "Monte dei Granati",
        "natural": "peak",
        "source": "https://www.passeier.org/archiv/passeier/passeier-panorama.pdf",
        "wikidata": "Q1542417",
        "wikipedia": "de:Granatenkogel"
      }
    },
    {
      "type": "node",
      "id": 321173241,
      "lat": 46.8787676,
      "lon": 11.0886685,
      "tags": {
        "ele": "2995",
        "fixme": "Grenzgipfel?",
        "name": "Äußere Schwenzerspitze",
        "name:de": "Äußere Schwenzerspitze",
        "name:it": "Punte delle Quaire",
        "natural": "peak",
        "source:ele": "www.basemap.at"
      }
    },
    {
      "type": "node",
      "id": 321173259,
      "lat": 46.8898876,
      "lon": 11.1016994,
      "tags": {
        "ele": "2828",
        "historic": "boundary_stone",
        "name": "Westl. Bankerjoch Spitz",
        "natural": "peak",
        "source": "survey"
      }
    },
    {
      "type": "node",
      "id": 321173385,
      "lat": 46.9450235,
      "lon": 11.1680984,
      "tags": {
        "ele": "3358",
        "name": "Schwarzwandspitz - Croda Nera di Malavalle",
        "name:de": "Schwarzwandspitz",
        "name:it": "Croda Nera di Malavalle",
        "natural": "peak",
        "wikidata": "Q21865674"
      }
    },
    {
      "type": "node",
      "id": 321173424,
      "lat": 46.9658439,
      "lon": 11.1644381,
      "tags": {
        "ele": "3456",
        "name": "Wilder Pfaff - Cima del Prete",
        "name:de": "Wilder Pfaff",
        "name:it": "Cima del Prete",
        "natural": "peak",
        "wikidata": "Q671171",
        "wikipedia": "it:Cima del Prete"
      }
    },
    {
      "type": "node",
      "id": 321174626,
      "lat": 46.8324003,
      "lon": 10.7829860,
      "tags": {
        "ele": "3437",
        "name": "Vordere Hintereisspitze",
        "natural": "peak",
        "wikidata": "Q872565",
        "wikipedia": "de:Hintereisspitzen"
      }
    },
    {
      "type": "node",
      "id": 321174748,
      "lat": 46.8861320,
      "lon": 10.8053720,
      "tags": {
        "ele": "3400",
        "name": "Hochvernagtwand",
        "natural": "peak",
        "source": "estimated from height lines",
        "wikidata": "Q1339688",
        "wikipedia": "de:Hochvernagtwand"
      }
    },
    {
      "type": "node",
      "id": 321174799,
      "lat": 46.8861516,
      "lon": 10.8496613,
      "tags": {
        "ele": "3635",
        "name": "Hinterer Brochkogel",
        "natural": "peak",
        "wikidata": "Q689121",
        "wikipedia": "de:Hinterer Brochkogel"
      }
    },
    {
      "type": "node",
      "id": 321174826,
      "lat": 46.8884450,
      "lon": 10.8722200,
      "tags": {
        "ele": "3677",
        "name": "Kreuzerschneide",
        "natural": "peak",
        "source": "estimated from height lines"
      }
    },
    {
      "type": "node",
      "id": 321174832,
      "lat": 46.8900172,
      "lon": 10.8760621,
      "tags": {
        "ele": "3552",
        "natural": "peak"
      }
    },
    {
      "type": "node",
      "id": 321174886,
      "lat": 46.8983950,
      "lon": 10.9104630,
      "tags": {
        "ele": "3284",
        "natural": "peak",
        "source": "estimated from height lines"
      }
    },
    {
      "type": "node",
      "id": 321174899,
      "lat": 46.9065420,
      "lon": 10.9131170,
      "tags": {
        "ele": "3214",
        "natural": "peak",
        "source": "estimated from height lines"
      }
    },
    {
      "type": "node",
      "id": 321174908,
      "lat": 46.9109420,
      "lon": 10.9140150,
      "tags": {
        "ele": "3176",
        "name": "P.3176",
        "natural": "peak",
        "source": "estimated from height lines"
      }
    },
    {
      "type": "node",
      "id": 321174921,
      "lat": 46.9150620,
      "lon": 10.9197420,
      "tags": {
        "ele": "3312",
        "name": "Mutkogel",
        "natural": "peak",
        "source": "estimated from height lines",
        "wikidata": "Q687789",
        "wikipedia": "de:Mutkogel"
      }
    },
    {
      "type": "node",
      "id": 321174927,
      "lat": 46.9191127,
      "lon": 10.9191605,
      "tags": {
        "ele": "3309",
        "name": "Tiefenbachkogel",
        "natural": "peak",
        "source": "estimated from height lines",
        "wikidata": "Q13510671"
      }
    },
    {
      "type": "node",
      "id": 321174933,
      "lat": 46.9240460,
      "lon": 10.9211510,
      "tags": {
        "ele": "3369",
        "name": "Innere Schwarze Schneide",
        "natural": "peak",
        "source": "estimated from height lines",
        "wikidata": "Q592455",
        "wikipedia": "de:Innere Schwarze Schneid"
      }
    },
    {
      "type": "node",
      "id": 321174952,
      "lat": 46.9412001,
      "lon": 10.9191756,
      "tags": {
        "ele": "3023",
        "name": "Pitztaler Jochköpfle",
        "natural": "peak",
        "source": "estimated from height lines"
      }
    },
    {
      "type": "node",
      "id": 321174956,
      "lat": 46.9443447,
      "lon": 10.9196235,
      "tags": {
        "ele": "3035",
        "name": "Nördlicher Polleskogel",
        "natural": "peak",
        "source": "estimated from height lines"
      }
    },
    {
      "type": "node",
      "id": 321174962,
      "lat": 46.9455470,
      "lon": 10.9259680,
      "tags": {
        "ele": "2980",
        "name": "Dreizeiger",
        "natural": "peak",
        "source": "estimated from height lines"
      }
    },
    {
      "type": "node",
      "id": 321174966,
      "lat": 46.9467230,
      "lon": 10.9283020,
      "tags": {
        "ele": "2975",
        "name": "Zweizeiger",
        "natural": "peak",
        "source": "estimated from height lines"
      }
    },
    {
      "type": "node",
      "id": 321174978,
      "lat": 46.9538730,
      "lon": 10.9334520,
      "tags": {
        "ele": "2966",
        "name": "Roter Turm",
        "natural": "peak",
        "source": "estimated from height lines"
      }
    },
    {
      "type": "node",
      "id": 321175005,
      "lat": 46.9671752,
      "lon": 10.9492477,
      "tags": {
        "ele": "2947",
        "name": "Rotkogel",
        "natural": "peak",
        "source": "basemap.at"
      }
    },
    {
      "type": "node",
      "id": 321175051,
      "lat": 46.9709220,
      "lon": 10.9508920,
      "tags": {
        "ele": "2942",
        "name": "Roßkirpl",
        "natural": "peak",
        "source": "estimated from height lines"
      }
    },
    {
      "type": "node",
      "id": 321175101,
      "lat": 46.9831230,
      "lon": 10.9628530,
      "tags": {
        "ele": "2793",
        "name": "Breitlehner",
        "natural": "peak",
        "source": "estimated from height lines"
      }
    },
    {
      "type": "node",
      "id": 321175111,
      "lat": 46.9876450,
      "lon": 10.9684420,
      "tags": {
        "alt_name": "Polleswand",
        "ele": "2876",
        "name": "Lange Wand",
        "natural": "peak",
        "source": "estimated from height lines"
      }
    },
    {
      "type": "node",
      "id": 321175117,
      "lat": 46.9901930,
      "lon": 10.9706130,
      "tags": {
        "ele": "2911",
        "name": "Grieskogel",
        "natural": "peak",
        "source": "estimated from height lines"
      }
    },
    {
      "type": "node",
      "id": 321175602,
      "lat": 46.9465950,
      "lon": 10.9180320,
      "tags": {
        "ele": "3015",
        "name": "Pollesfernerkopf",
        "natural": "peak",
        "source": "estimated from height lines"
      }
    },
    {
      "type": "node",
      "id": 321175626,
      "lat": 46.9613455,
      "lon": 10.9065141,
      "tags": {
        "ele": "3194",
        "name": "Gschrappkogel",
        "natural": "peak",
        "wikidata": "Q27516860",
        "wikipedia": "de:Gschrappkogel"
      }
    },
    {
      "type": "node",
      "id": 321175638,
      "lat": 46.9668170,
      "lon": 10.9053330,
      "tags": {
        "ele": "3247",
        "name": "Wassertalkogel",
        "natural": "peak",
        "source": "estimated from height lines",
        "wikidata": "Q784896",
        "wikipedia": "de:Wassertalkogel"
      }
    },
    {
      "type": "node",
      "id": 321175653,
      "lat": 46.9732829,
      "lon": 10.9017168,
      "tags": {
        "ele": "3170",
        "name": "Sonnenkogel",
        "natural": "peak",
        "source": "estimated from height lines"
      }
    },
    {
      "type": "node",
      "id": 321175698,
      "lat": 46.9965550,
      "lon": 10.9134450,
      "tags": {
        "ele": "3186",
        "name": "Ampferkogel",
        "natural": "peak",
        "source": "estimated from height lines",
        "wikidata": "Q474594",
        "wikipedia": "de:Ampferkogel"
      }
    },
    {
      "type": "node",
      "id": 321175706,
      "lat": 46.9995493,
      "lon": 10.9141000,
      "tags": {
        "ele": "3343",
        "name": "Silberschneide",
        "natural": "peak"
      }
    },
    {
      "type": "node",
      "id": 321175747,
      "lat": 47.0162900,
      "lon": 10.9124470,
      "tags": {
        "ele": "3296",
        "name": "Hoher Kogel",
        "natural": "peak",
        "source": "estimated from height lines"
      }
    },
    {
      "type": "node",
      "id": 321175814,
      "lat": 47.0382880,
      "lon": 10.8994130,
      "tags": {
        "ele": "2925",
        "natural": "peak"
      }
    },
    {
      "type": "node",
      "id": 321175839,
      "lat": 47.0517820,
      "lon": 10.9030150,
      "tags": {
        "ele": "3090",
        "name": "Hinterer Feuerkogel",
        "natural": "peak",
        "source": "estimated from height lines"
      }
    },
    {
      "type": "node",
      "id": 321175855,
      "lat": 47.0558680,
      "lon": 10.8911900,
      "tags": {
        "ele": "2950",
        "name": "Vorderer Feuerkogel",
        "natural": "peak",
        "source": "estimated from height lines"
      }
    },
    {
      "type": "node",
      "id": 321175858,
      "lat": 47.0573500,
      "lon": 10.8921380,
      "tags": {
        "ele": "2940",
        "natural": "peak",
        "source": "estimated from height lines"
      }
    },
    {
      "type": "node",
      "id": 321175870,
      "lat": 47.0626780,
      "lon": 10.8878570,
      "tags": {
        "ele": "2996",
        "name": "Dristenkogel",
        "natural": "peak",
        "source": "estimated from height lines"
      }
    },
    {
      "type": "node",
      "id": 321175885,
      "lat": 47.0665620,
      "lon": 10.8855780,
      "tags": {
        "ele": "2986",
        "name": "Grießkogel",
        "natural": "peak",
        "source": "estimated from height lines"
      }
    },
    {
      "type": "node",
      "id": 321175902,
      "lat": 47.0727200,
      "lon": 10.8860850,
      "tags": {
        "ele": "3044",
        "name": "Langkarlesschneid",
        "natural": "peak",
        "source": "estimated from height lines"
      }
    },
    {
      "type": "node",
      "id": 321175913,
      "lat": 47.0767330,
      "lon": 10.8853930,
      "tags": {
        "ele": "3092",
        "name": "Plattigkogel",
        "natural": "peak",
        "source": "estimated from height lines"
      }
    },
    {
      "type": "node",
      "id": 321175928,
      "lat": 47.0822341,
      "lon": 10.8983365,
      "tags": {
        "ele": "2837",
        "name": "Innerberger Felderkogel",
        "natural": "peak",
        "source": "GPS"
      }
    },
    {
      "type": "node",
      "id": 321175935,
      "lat": 47.0867680,
      "lon": 10.9006530,
      "tags": {
        "ele": "2857",
        "name": "Hohe Seite",
        "natural": "peak",
        "source": "estimated from height lines"
      }
    },
    {
      "type": "node",
      "id": 321176177,
      "lat": 47.1137762,
      "lon": 11.0635065,
      "tags": {
        "ele": "3189",
        "name": "Gleirscher Fernerkogel",
        "natural": "peak",
        "source": "basemap.at",
        "wikidata": "Q1530470",
        "wikipedia": "de:Gleirscher Fernerkogel"
      }
    },
    {
      "type": "node",
      "id": 321177500,
      "lat": 47.1139080,
      "lon": 10.7314180,
      "tags": {
        "ele": "2589",
        "name": "Kreuzjöchel",
        "natural": "peak"
      }
    },
    {
      "type": "node",
      "id": 321177909,
      "lat": 47.1623850,
      "lon": 10.8366380,
      "tags": {
        "ele": "2777",
        "name": "Weiter Karkopf",
        "natural": "peak",
        "source": "estimated from height lines",
        "wikidata": "Q2157338"
      }
    },
    {
      "type": "node",
      "id": 321178120,
      "lat": 47.0854172,
      "lon": 10.8805261,
      "tags": {
        "ele": "3098",
        "name": "Blockkogel",
        "natural": "peak",
        "source": "estimated from height lines",
        "wikidata": "Q4927291"
      }
    },
    {
      "type": "node",
      "id": 321178237,
      "lat": 47.1353500,
      "lon": 10.8266130,
      "tags": {
        "ele": "2936",
        "name": "Riegelkopf",
        "natural": "peak",
        "source": "estimated from height lines"
      }
    },
    {
      "type": "node",
      "id": 321178266,
      "lat": 47.1479450,
      "lon": 10.8326770,
      "tags": {
        "ele": "2918",
        "name": "Brechkogel",
        "natural": "peak",
        "source": "estimated from height lines",
        "wikidata": "Q2533502"
      }
    },
    {
      "type": "node",
      "id": 321178278,
      "lat": 47.1522562,
      "lon": 10.8299411,
      "tags": {
        "ele": "2784",
        "name": "Murmentenkarspitze",
        "natural": "peak",
        "source": "GPS",
        "wikidata": "Q2018495"
      }
    },
    {
      "type": "node",
      "id": 321178366,
      "lat": 46.9085270,
      "lon": 10.7732600,
      "tags": {
        "ele": "3456",
        "name": "Vordere Ölgrubenspitze",
        "natural": "peak",
        "wikidata": "Q871959",
        "wikipedia": "de:Vordere Ölgrubenspitze"
      }
    },
    {
      "type": "node",
      "id": 321178389,
      "lat": 46.9180300,
      "lon": 10.7861130,
      "tags": {
        "ele": "3454",
        "name": "Bliggspitze",
        "natural": "peak",
        "source": "estimated from height lines",
        "wikidata": "Q875012",
        "wikipedia": "de:Bliggspitze"
      }
    },
    {
      "type": "node",
      "id": 321178413,
      "lat": 46.9297200,
      "lon": 10.7917550,
      "tags": {
        "ele": "3373",
        "name": "Eiskastenspitze",
        "natural": "peak",
        "source": "estimated from height lines",
        "wikidata": "Q875420",
        "wikipedia": "de:Eiskastenspitze"
      }
    },
    {
      "type": "node",
      "id": 321178456,
      "lat": 46.9462770,
      "lon": 10.7831130,
      "tags": {
        "ele": "3237",
        "name": "Südlicher Hapmeskopf",
        "natural": "peak",
        "source": "estimated from height lines (probably quite a big error)"
      }
    },
    {
      "type": "node",
      "id": 321178463,
      "lat": 46.9492600,
      "lon": 10.7843430,
      "tags": {
        "ele": "3292",
        "name": "Nördlicher Hapmeskopf",
        "natural": "peak",
        "source": "estimated from height lines",
        "wikidata": "Q1970307"
      }
    },
    {
      "type": "node",
      "id": 321178500,
      "lat": 46.9588550,
      "lon": 10.7910330,
      "tags": {
        "ele": "3326",
        "name": "Löcherkogel",
        "natural": "peak",
        "source": "estimated from height lines",
        "wikidata": "Q871951",
        "wikipedia": "de:Löcherkogel"
      }
    },
    {
      "type": "node",
      "id": 321178534,
      "lat": 46.9687970,
      "lon": 10.7954770,
      "tags": {
        "ele": "3392",
        "name": "Rostizkogel",
        "natural": "peak",
        "source": "estimated from height lines",
        "wikidata": "Q874392",
        "wikipedia": "de:Rostizkogel"
      }
    },
    {
      "type": "node",
      "id": 321178556,
      "lat": 46.9730190,
      "lon": 10.7994751,
      "tags": {
        "ele": "3291",
        "natural": "peak",
        "source": "estimated from height lines"
      }
    },
    {
      "type": "node",
      "id": 321178624,
      "lat": 46.9896651,
      "lon": 10.7954208,
      "tags": {
        "alt_name": "Watze;Waze",
        "ele": "3532",
        "name": "Watzespitze",
        "natural": "peak",
        "source": "GPS",
        "wikidata": "Q477177",
        "wikipedia": "de:Watzespitze"
      }
    },
    {
      "type": "node",
      "id": 321178648,
      "lat": 47.0015400,
      "lon": 10.7939630,
      "tags": {
        "ele": "3232",
        "name": "Piz Maskus",
        "natural": "peak"
      }
    },
    {
      "type": "node",
      "id": 321178708,
      "lat": 47.0233980,
      "lon": 10.8146830,
      "tags": {
        "ele": "3130",
        "name": "Mittlerer Sonnenkogel",
        "natural": "peak",
        "source": "estimated from height lines"
      }
    },
    {
      "type": "node",
      "id": 321178716,
      "lat": 47.0245820,
      "lon": 10.8210200,
      "tags": {
        "ele": "3163",
        "name": "Östlicher Sonnenkogel",
        "natural": "peak",
        "source": "estimated from height lines"
      }
    },
    {
      "type": "node",
      "id": 321178772,
      "lat": 47.0499870,
      "lon": 10.8011830,
      "tags": {
        "ele": "3059",
        "name": "Großer Dristkogel",
        "natural": "peak",
        "source": "estimated from height lines"
      }
    },
    {
      "type": "node",
      "id": 321178779,
      "lat": 47.0546000,
      "lon": 10.8006580,
      "tags": {
        "ele": "2934",
        "name": "Kleiner Dristkogel",
        "natural": "peak",
        "source": "estimated from height lines",
        "wikidata": "Q1746606",
        "wikipedia": "de:Kleiner Dristkogel"
      }
    },
    {
      "type": "node",
      "id": 321178783,
      "lat": 47.0588730,
      "lon": 10.8006620,
      "tags": {
        "ele": "2850",
        "name": "Wallfahrtsköpfl",
        "natural": "peak",
        "source": "estimated from height lines"
      }
    },
    {
      "type": "node",
      "id": 321178799,
      "lat": 47.0649454,
      "lon": 10.7921458,
      "tags": {
        "ele": "2914",
        "name": "Peischlkopf",
        "natural": "peak",
        "source": "estimated from height lines"
      }
    },
    {
      "type": "node",
      "id": 321178819,
      "lat": 47.0745470,
      "lon": 10.7898650,
      "tags": {
        "alt_name": "Steinmannl",
        "ele": "2898",
        "name": "Steinmanndl",
        "natural": "peak",
        "source": "estimated from height lines"
      }
    },
    {
      "type": "node",
      "id": 321178827,
      "lat": 47.0804100,
      "lon": 10.7861600,
      "tags": {
        "ele": "2870",
        "name": "Vorderer Stupfarri",
        "natural": "peak"
      }
    },
    {
      "type": "node",
      "id": 321620390,
      "lat": 46.9539885,
      "lon": 10.3278196,
      "tags": {
        "ele": "2744",
        "name": "Salaaser Kopf",
        "natural": "peak",
        "wikidata": "Q22388128"
      }
    },
    {
      "type": "node",
      "id": 323896644,
      "lat": 47.4167407,
      "lon": 10.9713320,
      "tags": {
        "ele": "2815",
        "name": "Zugspitzeck",
        "natural": "peak"
      }
    },
    {
      "type": "node",
      "id": 324065494,
      "lat": 47.3198737,
      "lon": 10.3453823,
      "tags": {
        "ele": "2553",
        "name": "Krottenspitze",
        "natural": "peak",
        "ref:avf": "1579",
        "source": "GPS",
        "wikidata": "Q1790064",
        "wikipedia": "de:Krottenspitze"
      }
    },
    {
      "type": "node",
      "id": 325195147,
      "lat": 47.2198815,
      "lon": 13.8647338,
      "tags": {
        "ele": "2741",
        "name": "Preber",
        "natural": "peak",
        "wikidata": "Q680084",
        "wikipedia": "de:Preber"
      }
    },
    {
      "type": "node",
      "id": 325196219,
      "lat": 47.2620878,
      "lon": 13.9112386,
      "tags": {
        "ele": "2543",
        "massif": "Schladminger Tauern",
        "name": "Predigtstuhl",
        "natural": "peak",
        "summit:cross": "yes",
        "summit:register": "yes"
      }
    },
    {
      "type": "node",
      "id": 325199984,
      "lat": 47.2288283,
      "lon": 14.0150527,
      "tags": {
        "ele": "2507",
        "name": "Brennerfeldeck",
        "natural": "peak"
      }
    },
    {
      "type": "node",
      "id": 328225959,
      "lat": 47.0230170,
      "lon": 10.6933880,
      "tags": {
        "ele": "2519",
        "name": "Schlanterkopf",
        "natural": "peak",
        "source": "estimated from height lines"
      }
    },
    {
      "type": "node",
      "id": 328226291,
      "lat": 47.0256175,
      "lon": 10.7098805,
      "tags": {
        "ele": "2807",
        "name": "Gamsköpfe",
        "natural": "peak",
        "source": "estimated from height lines"
      }
    },
    {
      "type": "node",
      "id": 328277043,
      "lat": 47.1724875,
      "lon": 10.5334694,
      "tags": {
        "ele": "2811",
        "name": "Ober-Rauhekopf",
        "natural": "peak",
        "source": "estimated from NASA height data"
      }
    },
    {
      "type": "node",
      "id": 328329229,
      "lat": 46.8960490,
      "lon": 10.6059763,
      "tags": {
        "ele": "2744",
        "name": "Muttlerkopf",
        "natural": "peak",
        "source": "basemap.at",
        "wikidata": "Q21878935"
      }
    },
    {
      "type": "node",
      "id": 328329463,
      "lat": 46.8800040,
      "lon": 10.6169067,
      "tags": {
        "ele": "2928",
        "name": "Schönkarlespitze",
        "natural": "peak",
        "source": "estimated from height lines"
      }
    },
    {
      "type": "node",
      "id": 328329549,
      "lat": 46.8720370,
      "lon": 10.6191880,
      "tags": {
        "ele": "3059",
        "name": "Südlicher Seekarkopf",
        "natural": "peak",
        "wikidata": "Q662843",
        "wikipedia": "de:Seekarköpfe"
      }
    },
    {
      "type": "node",
      "id": 328329658,
      "lat": 46.8644030,
      "lon": 10.6241900,
      "tags": {
        "alt_name:de": "Matscher Winkelspitze",
        "ele": "3045",
        "name": "Nauderer Hennesiglspitze - Monte Cantone",
        "name:de": "Nauderer Hennesiglspitze",
        "name:it": "Monte Cantone",
        "natural": "peak",
        "source": "http://www.summitpost.org/nauderer-berge/826984",
        "wikidata": "Q874530",
        "wikipedia": "de:Nauderer Hennesiglspitze"
      }
    },
    {
      "type": "node",
      "id": 328330300,
      "lat": 46.8372666,
      "lon": 10.5461739,
      "tags": {
        "ele": "2922",
        "name": "Klopaier Spitze - Piz Clopai",
        "name:de": "Klopaier Spitze",
        "name:it": "Piz Clopai",
        "natural": "peak",
        "source": "estimated from height lines",
        "wikidata": "Q1774869",
        "wikipedia": "de:Klopaierspitze"
      }
    },
    {
      "type": "node",
      "id": 328330391,
      "lat": 46.8468669,
      "lon": 10.5563765,
      "tags": {
        "alt_name": "Bergkastlspitze",
        "ele": "2920",
        "name": "Bergkastelspitze - Cima Castello",
        "name:de": "Bergkastelspitze",
        "name:it": "Cima Castello",
        "natural": "peak",
        "source": "GPS",
        "wikidata": "Q22691327",
        "wikipedia": "de:Bergkastelspitze"
      }
    },
    {
      "type": "node",
      "id": 328333086,
      "lat": 46.9325072,
      "lon": 10.1077148,
      "tags": {
        "ele": "2643",
        "name": "Kleine Vallüla",
        "natural": "peak"
      }
    },
    {
      "type": "node",
      "id": 328333366,
      "lat": 46.9553969,
      "lon": 10.1353782,
      "tags": {
        "ele": "2671",
        "name": "Ballunspitze",
        "natural": "peak",
        "source": "GPS",
        "wikidata": "Q21873495"
      }
    },
    {
      "type": "node",
      "id": 328333874,
      "lat": 46.9828817,
      "lon": 10.1715678,
      "tags": {
        "ele": "2754",
        "name": "Grieskopf",
        "natural": "peak",
        "source": "GPS"
      }
    },
    {
      "type": "node",
      "id": 328337796,
      "lat": 46.9954120,
      "lon": 10.6808700,
      "tags": {
        "ele": "2945",
        "name": "Zirmesspitze",
        "natural": "peak",
        "source": "estimated from height lines"
      }
    },
    {
      "type": "node",
      "id": 328338052,
      "lat": 46.9776030,
      "lon": 10.6893531,
      "tags": {
        "ele": "3148",
        "name": "Pfroslkopf",
        "natural": "peak",
        "source": "estimated from height lines",
        "wikidata": "Q7179825"
      }
    },
    {
      "type": "node",
      "id": 328338221,
      "lat": 46.9678650,
      "lon": 10.6859970,
      "tags": {
        "ele": "3067",
        "name": "Taufererkopf",
        "natural": "peak",
        "source": "estimated from height lines"
      }
    },
    {
      "type": "node",
      "id": 328338320,
      "lat": 46.9614600,
      "lon": 10.6824050,
      "tags": {
        "ele": "3047",
        "name": "Tauferer Spitze",
        "natural": "peak"
      }
    },
    {
      "type": "node",
      "id": 328338378,
      "lat": 46.9560870,
      "lon": 10.6861020,
      "tags": {
        "ele": "3101",
        "name": "Glockhaus",
        "natural": "peak",
        "wikidata": "Q21871063"
      }
    },
    {
      "type": "node",
      "id": 328338487,
      "lat": 46.9504230,
      "lon": 10.6826750,
      "tags": {
        "ele": "3104",
        "name": "Bergler Fernerkopf",
        "natural": "peak"
      }
    },
    {
      "type": "node",
      "id": 328338590,
      "lat": 46.9523248,
      "lon": 10.6674212,
      "tags": {
        "ele": "2860",
        "name": "Arzkopf",
        "natural": "peak",
        "source": "basemap.at"
      }
    },
    {
      "type": "node",
      "id": 328338774,
      "lat": 46.9739535,
      "lon": 10.6560481,
      "tags": {
        "ele": "2703",
        "name": "Serneskopf",
        "natural": "peak",
        "source": "basemap.at"
      }
    },
    {
      "type": "node",
      "id": 328340715,
      "lat": 47.0155429,
      "lon": 10.7079861,
      "tags": {
        "ele": "2918",
        "name": "Feichtner Karlspitze",
        "natural": "peak"
      }
    },
    {
      "type": "node",
      "id": 328340753,
      "lat": 47.0113022,
      "lon": 10.7111841,
      "tags": {
        "ele": "2883",
        "name": "Alter Mann",
        "natural": "peak",
        "source": "estimated from height lines"
      }
    },
    {
      "type": "node",
      "id": 328340941,
      "lat": 46.9986430,
      "lon": 10.7069320,
      "tags": {
        "ele": "2992",
        "name": "Kuppkarlesspitze",
        "natural": "peak",
        "source": "estimated from height lines"
      }
    },
    {
      "type": "node",
      "id": 328340978,
      "lat": 46.9889878,
      "lon": 10.7044956,
      "tags": {
        "ele": "3003",
        "name": "Äußere Riefenkarspitze",
        "natural": "peak",
        "source": "estimated from height lines"
      }
    },
    {
      "type": "node",
      "id": 328341039,
      "lat": 46.9850930,
      "lon": 10.6993920,
      "tags": {
        "ele": "2980",
        "natural": "peak"
      }
    },
    {
      "type": "node",
      "id": 328341060,
      "lat": 46.9826800,
      "lon": 10.6976770,
      "tags": {
        "ele": "3008",
        "name": "Innere Rifenkarsitze",
        "natural": "peak",
        "source": "estimated from height lines"
      }
    },
    {
      "type": "node",
      "id": 328348442,
      "lat": 46.8226264,
      "lon": 10.7638720,
      "tags": {
        "ele": "3486",
        "name": "Hintere Hintereisspitze",
        "natural": "peak",
        "wikidata": "Q872565",
        "wikipedia": "de:Hintereisspitzen"
      }
    },
    {
      "type": "node",
      "id": 328348816,
      "lat": 46.8562680,
      "lon": 10.6944720,
      "tags": {
        "ele": "3143",
        "natural": "peak",
        "source": "estimated from height lines"
      }
    },
    {
      "type": "node",
      "id": 328348834,
      "lat": 46.8579230,
      "lon": 10.6936100,
      "tags": {
        "ele": "3160",
        "name": "Hintere Karlesspitze",
        "natural": "peak",
        "source": "estimated from height lines",
        "wikidata": "Q2682684"
      }
    },
    {
      "type": "node",
      "id": 328349140,
      "lat": 46.8754890,
      "lon": 10.6673729,
      "tags": {
        "ele": "3144",
        "name": "Hennesiglspitz - Punta della Gallina",
        "name:de": "Hennesiglspitz",
        "name:it": "Punta della Gallina",
        "natural": "peak",
        "source": "http://www.caitregnago.it/public/tmp1/all-304.pdf"
      }
    },
    {
      "type": "node",
      "id": 328349355,
      "lat": 46.9005300,
      "lon": 10.6743980,
      "tags": {
        "ele": "3219",
        "name": "Rifflkarspitze",
        "natural": "peak",
        "source": "estimated from height lines",
        "wikidata": "Q21000105",
        "wikipedia": "de:Rifflkarspitze"
      }
    },
    {
      "type": "node",
      "id": 328349467,
      "lat": 46.9095780,
      "lon": 10.6619220,
      "tags": {
        "ele": "3113",
        "name": "Rotschragenspitze",
        "natural": "peak",
        "source": "estimated from height lines"
      }
    },