{
  "version": 0.6,
  "generator": "Overpass API 0.7.56.7 b85c4387",
  "osm3s": {
    "timestamp_osm_base": "2020-10-22T14:55:02Z",
    "timestamp_areas_base": "2020-10-22T14:24:03Z",
    "copyright": "The data included in this document is from www.openstreetmap.org. The data is made available under ODbL."
  },
  "elements": [

    {
      "type": "node",
      "id": 26862459,
      "lat": 45.5049956,
      "lon": 6.9998427,
      "tags": {
        "ele": "3747",
        "name": "Aiguille de la Grande Sassière",
        "natural": "peak",
        "pdop": "1.33",
        "source": "survey",
        "wikidata": "Q2598084",
        "wikipedia": "it:Aiguille de la Grande Sassière"
      }
    },
    {
      "type": "node",
      "id": 26862463,
      "lat": 45.7946096,
      "lon": 6.8150821,
      "tags": {
        "alt_name": "Aiguilles de Tré la Tête",
        "ele": "3920",
        "name": "Aiguille de Tré-la-Tête Centrale Sud-Est",
        "natural": "peak",
        "wikidata": "Q731683"
      }
    },
    {
      "type": "node",
      "id": 26862537,
      "lat": 45.8705972,
      "lon": 7.4908648,
      "tags": {
        "ele": "3504",
        "name": "Becca di Luseney",
        "natural": "peak",
        "wikidata": "Q3382378",
        "wikipedia": "it:Becca di Luseney"
      }
    },
    {
      "type": "node",
      "id": 26862539,
      "lat": 46.6077439,
      "lon": 12.0444775,
      "tags": {
        "ele": "2794",
        "name": "Bechei di Sopra",
        "natural": "peak"
      }
    },
    {
      "type": "node",
      "id": 26862661,
      "lat": 46.4740893,
      "lon": 11.6438283,
      "tags": {
        "ele": "3004",
        "name": "Kesselkogel - Catinaccio d'Antermoia",
        "name:de": "Kesselkogel",
        "name:it": "Catinaccio d'Antermoia",
        "natural": "peak",
        "summit:cross": "yes",
        "wikidata": "Q499252",
        "wikipedia": "de:Kesselkogel"
      }
    },
    {
      "type": "node",
      "id": 26862684,
      "lat": 46.4791667,
      "lon": 12.0980556,
      "tags": {
        "ele": "2715",
        "man_made": "survey_point",
        "name": "Cima Ambrizzola",
        "natural": "peak"
      }
    },
    {
      "type": "node",
      "id": 26862685,
      "lat": 44.1777206,
      "lon": 7.3053896,
      "tags": {
        "ele": "3297",
        "name": "Cima Sud Argentera",
        "natural": "peak",
        "prominence": "1295",
        "wikidata": "Q2060375",
        "wikipedia": "it:Monte Argentera"
      }
    },
    {
      "type": "node",
      "id": 26862686,
      "lat": 46.4851159,
      "lon": 12.2678531,
      "tags": {
        "alt_name": "Cima Bastion",
        "ele": "2926",
        "name": "Cima Bastioni",
        "natural": "peak"
      }
    },
    {
      "type": "node",
      "id": 26862689,
      "lat": 46.1797021,
      "lon": 10.9000360,
      "tags": {
        "ele": "3151",
        "name": "Cima Brenta",
        "natural": "peak",
        "prominence": "1496",
        "wikidata": "Q221844",
        "wikipedia": "it:Cima Brenta"
      }
    },
    {
      "type": "node",
      "id": 26862691,
      "lat": 46.5776149,
      "lon": 12.2882724,
      "tags": {
        "ele": "2839",
        "name": "Cima Cadin di San Lucano",
        "natural": "peak"
      }
    },
    {
      "type": "node",
      "id": 26862692,
      "lat": 45.0721363,
      "lon": 7.0129694,
      "tags": {
        "ele": "2849",
        "name": "Cima Ciantiplagna",
        "natural": "peak",
        "summit:cross": "yes",
        "wikidata": "Q3676729",
        "wikipedia": "it:Cima Ciantiplagna"
      }
    },
    {
      "type": "node",
      "id": 26862693,
      "lat": 46.1766183,
      "lon": 11.6052937,
      "tags": {
        "ele": "2847",
        "name": "Cima d'Asta",
        "natural": "peak",
        "summit:cross": "yes",
        "wikidata": "Q501840",
        "wikipedia": "it:Cima d'Asta"
      }
    },
    {
      "type": "node",
      "id": 26862695,
      "lat": 46.3423245,
      "lon": 12.4210592,
      "tags": {
        "ele": "2707",
        "loc_name": "Mont dei Preves",
        "name": "Cima dei Preti",
        "natural": "peak",
        "prominence": "1420",
        "wikidata": "Q936906",
        "wikipedia": "it:Cima dei Preti"
      }
    },
    {
      "type": "node",
      "id": 26862698,
      "lat": 46.2899137,
      "lon": 11.8297409,
      "tags": {
        "ele": "3192",
        "importance": "national",
        "name": "Cima della Vezzana",
        "natural": "peak",
        "prominence": "1273",
        "wikidata": "Q1092027",
        "wikipedia": "it:Vezzana"
      }
    },
    {
      "type": "node",
      "id": 26862708,
      "lat": 46.3343734,
      "lon": 11.9283766,
      "tags": {
        "alt_name": "Sanson",
        "ele": "2503",
        "name": "Cima Pape",
        "natural": "peak"
      }
    },
    {
      "type": "node",
      "id": 26862710,
      "lat": 46.2199321,
      "lon": 10.6641189,
      "tags": {
        "ele": "3556",
        "name": "Cima Presanella",
        "name:de": "Cima Presanella",
        "name:it": "Cima Presanella",
        "natural": "peak",
        "prominence": "1676",
        "summit:cross": "yes",
        "wikidata": "Q2094363",
        "wikipedia": "it:Cima Presanella"
      }
    },
    {
      "type": "node",
      "id": 26862711,
      "lat": 46.9463889,
      "lon": 11.5077778,
      "tags": {
        "ele": "2800",
        "name": "Rollspitze - Cima Rolle",
        "name:de": "Rollspitze",
        "name:it": "Cima Rolle",
        "natural": "peak"
      }
    },
    {
      "type": "node",
      "id": 26862712,
      "lat": 46.1565222,
      "lon": 10.8711276,
      "tags": {
        "ele": "3136",
        "name": "Cima Tosa",
        "natural": "peak",
        "prominence": "1521",
        "wikidata": "Q594670",
        "wikipedia": "it:Cima Tosa"
      }
    },
    {
      "type": "node",
      "id": 26862713,
      "lat": 46.6363889,
      "lon": 12.3783333,
      "tags": {
        "ele": "3090",
        "name": "Cima Undici",
        "name:de": "Elferkofel",
        "name:it": "Cima Undici",
        "natural": "peak",
        "wikidata": "Q628931",
        "wikipedia": "it:Cima Undici"
      }
    },
    {
      "type": "node",
      "id": 26862715,
      "lat": 46.3837040,
      "lon": 10.1966075,
      "tags": {
        "ele": "3374",
        "name": "Cima Viola",
        "natural": "peak",
        "prominence": "1081",
        "summit:cross": "yes",
        "wikidata": "Q3676778",
        "wikipedia": "it:Cima Viola"
      }
    },
    {
      "type": "node",
      "id": 26862717,
      "lat": 46.5073978,
      "lon": 12.3404365,
      "tags": {
        "ele": "2932",
        "name": "Cimon del Froppa",
        "natural": "peak",
        "wikidata": "Q3676992",
        "wikipedia": "it:Cimon del Froppa"
      }
    },
    {
      "type": "node",
      "id": 26862726,
      "lat": 46.9108333,
      "lon": 12.1397222,
      "tags": {
        "ele": "3436",
        "name": "Hochgall - Monte Collalto",
        "name:de": "Hochgall",
        "name:it": "Monte Collalto",
        "natural": "peak",
        "prominence": "1148",
        "wikidata": "Q668394",
        "wikipedia": "it:Monte Collalto"
      }
    },
    {
      "type": "node",
      "id": 26862736,
      "lat": 42.4693580,
      "lon": 13.5656452,
      "tags": {
        "ele": "2912",
        "name": "Corno Grande - Vetta Occidentale",
        "natural": "peak",
        "prominence": "2476",
        "source:prominence": "peaklist.org",
        "summit:cross": "yes",
        "summit:register": "yes",
        "wikidata": "Q636540",
        "wikipedia": "it:Corno Grande"
      }
    },
    {
      "type": "node",
      "id": 26862751,
      "lat": 46.6191667,
      "lon": 12.3597222,
      "tags": {
        "ele": "3095",
        "name": "Croda dei Toni",
        "name:de": "Zwölferkofel",
        "name:it": "Croda dei Toni",
        "natural": "peak",
        "wikidata": "Q245219",
        "wikipedia": "it:Croda dei Toni"
      }
    },
    {
      "type": "node",
      "id": 26862752,
      "lat": 46.6347222,
      "lon": 12.1436111,
      "tags": {
        "ele": "3140",
        "name": "Hohe Gaisl - Croda Rossa",
        "name:de": "Hohe Gaisl",
        "name:it": "Croda Rossa d'Ampezzo",
        "name:lld": "Crep Checio",
        "natural": "peak",
        "prominence": "1133",
        "source": "wikipedia",
        "wikidata": "Q3506451",
        "wikipedia": "it:Croda Rossa d'Ampezzo"
      }
    },
    {
      "type": "node",
      "id": 26862776,
      "lat": 45.9699788,
      "lon": 7.6050349,
      "tags": {
        "ele": "4171",
        "name": "Dent d'Hérens",
        "natural": "peak",
        "source": "Carta Tecnica Regione VDA",
        "wikidata": "Q30459",
        "wikipedia": "it:Dent d'Hérens"
      }
    },
    {
      "type": "node",
      "id": 26862898,
      "lat": 46.6121209,
      "lon": 11.7736385,
      "tags": {
        "ele": "3025",
        "name": "La Furchёta",
        "name:de": "Furchetta",
        "name:it": "Furchetta",
        "name:lld": "La Furchёta",
        "natural": "peak",
        "wikidata": "Q626693",
        "wikipedia": "it:Furchetta"
      }
    },
    {
      "type": "node",
      "id": 26863007,
      "lat": 45.3282495,
      "lon": 7.1449396,
      "tags": {
        "ele": "3676",
        "name": "Uia di Ciamarella",
        "name:fr": "La Grande Ciamarella",
        "natural": "peak",
        "wikidata": "Q590343",
        "wikipedia": "it:Uia di Ciamarella"
      }
    },
    {
      "type": "node",
      "id": 26863010,
      "lat": 45.5178193,
      "lon": 7.2672005,
      "tags": {
        "ele": "4061",
        "name": "Gran Paradiso",
        "name:fr": "Grand Paradis",
        "name:it": "Gran Paradiso",
        "natural": "peak",
        "prominence": "1891",
        "source": "GPS",
        "source: prominence": "https://en.wikipedia.org/wiki/List_of_European_ultra-prominent_peaks",
        "wikidata": "Q1372",
        "wikipedia": "it:Gran Paradiso"
      }
    },
    {
      "type": "node",
      "id": 26863022,
      "lat": 45.8137818,
      "lon": 7.0614211,
      "tags": {
        "ele": "3328",
        "name": "Grande Rochère",
        "natural": "peak",
        "source": "PCN 2006 Ita+gps",
        "wikidata": "Q3775581",
        "wikipedia": "it:Grande Rochère"
      }
    },
    {
      "type": "node",
      "id": 26863024,
      "lat": 45.8681562,
      "lon": 6.9889831,
      "tags": {
        "ele": "4208",
        "name": "Grandes Jorasses / Pointe Walker",
        "natural": "peak",
        "wikidata": "Q2403858",
        "wikipedia": "it:Punta Walker"
      }
    },
    {
      "type": "node",
      "id": 26863151,
      "lat": 46.7734046,
      "lon": 10.9146852,
      "tags": {
        "ele": "3624",
        "name": "Hintere Schwärze",
        "name:de": "Hintere Schwärze",
        "name:it": "Cima Nera",
        "natural": "peak",
        "prominence": "805",
        "source": "basemap.at",
        "wikidata": "Q427549",
        "wikipedia": "it:Cima Nera (Alpi Venoste)"
      }
    },
    {
      "type": "node",
      "id": 26863280,
      "lat": 46.4357605,
      "lon": 13.4339244,
      "tags": {
        "alt_name:sl": "Špik nad Policami",
        "ele": "2754",
        "man_made": "campanile",
        "name": "Jôf di Montasio",
        "name:de": "Montasch",
        "name:fur": "Jôf dal Montâs",
        "name:sl": "Montaž",
        "natural": "peak",
        "old_name:de": "Bramkofel",
        "prominence": "1596",
        "summit:cross": "yes",
        "wikidata": "Q1759191",
        "wikipedia": "it:Jôf di Montasio"
      }
    },
    {
      "type": "node",
      "id": 26863316,
      "lat": 46.3601450,
      "lon": 13.4390292,
      "tags": {
        "alt_name": "Monte Canin Alto",
        "ele": "2587",
        "loc_name": "Ćanïn",
        "name": "Kanin / Canin",
        "name:fur": "La Mont Cjanìne",
        "name:it": "Canin",
        "name:sl": "Kanin",
        "natural": "peak",
        "prominence": "1403",
        "summit:cross": "yes",
        "summit:register": "yes",
        "wikidata": "Q1723772",
        "wikipedia": "it:Monte Canin"
      }
    },
    {
      "type": "node",
      "id": 26863477,
      "lat": 45.5960003,
      "lon": 7.2574395,
      "tags": {
        "ele": "3969",
        "name": "Grivola",
        "natural": "peak",
        "source": "Carta Tecnica Regione VDA",
        "wikidata": "Q1373",
        "wikipedia": "it:Grivola"
      }
    },
    {
      "type": "node",
      "id": 26863488,
      "lat": 46.2300000,
      "lon": 12.1822222,
      "tags": {
        "ele": "2565",
        "name": "Schiara",
        "natural": "peak",
        "wikidata": "Q3861991",
        "wikipedia": "it:Schiara"
      }
    },
    {
      "type": "node",
      "id": 26863540,
      "lat": 45.4105599,
      "lon": 7.1719413,
      "tags": {
        "ele": "3619",
        "name": "Levanna Centrale",
        "natural": "peak",
        "wikidata": "Q21192635",
        "wikipedia": "it:Levanna Centrale"
      }
    },
    {
      "type": "node",
      "id": 26863664,
      "lat": 45.9764510,
      "lon": 7.6585657,
      "tags": {
        "alt:WGS84": "4532.90",
        "alt:müm": "4477.50",
        "alt_name": "Cervino",
        "ele": "4478",
        "importance": "international",
        "name": "Matterhorn",
        "name:be": "Матэргорн",
        "name:bg": "Матерхорн",
        "name:de": "Matterhorn",
        "name:eo": "Materhorno",
        "name:es": "Cervino",
        "name:fr": "Cervin",
        "name:ga": "Sliabh Cervin",
        "name:he": "מַטֵרְהוֹרְן",
        "name:it": "Cervino",
        "name:ja": "マッターホルン",
        "name:ko": "마터호른 산",
        "name:lt": "Materhornas",
        "name:ru": "Маттерхорн",
        "name:th": "ยอดเขามัทเทอร์ฮอร์น",
        "name:uk": "Матергорн",
        "name:ur": "میٹرہارن",
        "name:zh": "马特洪峰",
        "name:zh-Hant": "馬特洪峰",
        "natural": "peak",
        "prominence": "1042",
        "source:prominence": "https://en.wikipedia.org/wiki/List_of_mountains_of_Switzerland",
        "wikidata": "Q1374",
        "wikipedia": "it:Cervino"
      }
    },
    {
      "type": "node",
      "id": 26863728,
      "lat": 44.1227794,
      "lon": 7.3842062,
      "tags": {
        "ele": "3143",
        "name": "Cime du Gelas",
        "name:it": "Monte Gelas",
        "natural": "peak",
        "wikidata": "Q2401467",
        "wikipedia": "it:Monte Gelàs"
      }
    },
    {
      "type": "node",
      "id": 26863733,
      "lat": 44.1739657,
      "lon": 7.6845227,
      "tags": {
        "ele": "2651",
        "name": "Punta Marguareis",
        "name:fr": "Pointe Marguareis",
        "natural": "peak",
        "wikidata": "Q1767616",
        "wikipedia": "it:Punta Marguareis"
      }
    },
    {
      "type": "node",
      "id": 26863749,
      "lat": 45.8919362,
      "lon": 7.2514708,
      "tags": {
        "ele": "3727",
        "name": "Mont Vélan",
        "natural": "peak",
        "wikidata": "Q669860",
        "wikipedia": "it:Monte Vélan"
      }
    },
    {
      "type": "node",
      "id": 26863786,
      "lat": 42.0863320,
      "lon": 14.0859108,
      "tags": {
        "ele": "2793",
        "name": "Monte Amaro",
        "natural": "peak",
        "prominence": "1812"
      }
    },
    {
      "type": "node",
      "id": 26863796,
      "lat": 45.7531231,
      "lon": 6.8979714,
      "tags": {
        "ele": "3252",
        "name": "Mont Berrio Blanc",
        "natural": "peak",
        "sources": "Carta Tecnica Regione VDA",
        "wikidata": "Q3861225",
        "wikipedia": "it:Monte Berio Blanc"
      }
    },
    {
      "type": "node",
      "id": 26863799,
      "lat": 46.5125311,
      "lon": 12.5658983,
      "tags": {
        "ele": "2545",
        "name": "Monte Brentoni (Cima di mezzo)",
        "natural": "peak",
        "prominence": "1017",
        "wikidata": "Q3861253",
        "wikipedia": "it:Monte Brentoni"
      }
    },
    {
      "type": "node",
      "id": 26863814,
      "lat": 46.5786065,
      "lon": 10.2016737,
      "tags": {
        "ele": "3100",
        "name": "Monte Cassa del Ferro",
        "natural": "peak",
        "wikidata": "Q3861415",
        "wikipedia": "it:Monte Cassa del Ferro"
      }
    },
    {
      "type": "node",
      "id": 26863823,
      "lat": 46.4436507,
      "lon": 10.6165899,
      "tags": {
        "ele": "3769",
        "name": "Monte Cevedale",
        "natural": "peak",
        "summit:cross": "yes",
        "wikidata": "Q1287528",
        "wikipedia": "it:Monte Cevedale"
      }
    },
    {
      "type": "node",
      "id": 26863830,
      "lat": 46.3801303,
      "lon": 12.0533469,
      "tags": {
        "ele": "3220",
        "name": "Monte Civetta",
        "natural": "peak",
        "prominence": "1454",
        "summit:cross": "yes"
      }
    },
    {
      "type": "node",
      "id": 26863840,
      "lat": 46.5754463,
      "lon": 12.2005443,
      "tags": {
        "ele": "3221",
        "name": "Monte Cristallo",
        "name:de": "Kristallberg",
        "natural": "peak",
        "prominence": "1416",
        "wikidata": "Q1945814",
        "wikipedia": "it:Monte Cristallo"
      }
    },
    {
      "type": "node",
      "id": 26863857,
      "lat": 45.6788610,
      "lon": 7.3849164,
      "tags": {
        "ele": "3559",
        "name": "Monte Emilius",
        "natural": "peak",
        "source": "GPS",
        "wikidata": "Q1664254",
        "wikipedia": "it:Monte Emilius"
      }
    },
    {
      "type": "node",
      "id": 26863860,
      "lat": 45.7754147,
      "lon": 7.1944304,
      "tags": {
        "ele": "3061",
        "loc_name": "Mont Fallère",
        "name": "Monte Fallere",
        "natural": "peak",
        "wikidata": "Q3861037",
        "wikimedia_commons": "Category:Mont Fallère",
        "wikipedia": "it:Mont Fallère"
      }
    },
    {
      "type": "node",
      "id": 26863867,
      "lat": 46.0242862,
      "lon": 10.4487549,
      "tags": {
        "ele": "2897",
        "name": "Monte Frisozzo",
        "natural": "peak"
      }
    },
    {
      "type": "node",
      "id": 26863900,
      "lat": 44.2263529,
      "lon": 7.2563052,
      "tags": {
        "ele": "3088",
        "name": "Monte Matto Cima Est",
        "natural": "peak"
      }
    },
    {
      "type": "node",
      "id": 26863911,
      "lat": 45.7156339,
      "lon": 7.8202957,
      "tags": {
        "ele": "3075",
        "loc_name": "Mont Nery",
        "name": "Mont Nery/Becca Frudiera",
        "name:fr": "Mont Nery",
        "natural": "peak",
        "note": "Il nome Becca Frudiera (o Froudiera, dal nome del Lago di Froudire) non viene quasi mai usato in zona, la montagna è conosciuta quasi ovunque come Mont Nery",
        "source": "pcn2006+gps",
        "wikidata": "Q3321995",
        "wikipedia": "it:Becca Frudiera"
      }
    },
    {
      "type": "node",
      "id": 26863925,
      "lat": 46.4199771,
      "lon": 12.1347283,
      "tags": {
        "ele": "3172",
        "name": "Monte Pelmo",
        "natural": "peak",
        "prominence": "1191",
        "summit:cross": "yes",
        "summit:register": "yes"
      }
    },
    {
      "type": "node",
      "id": 26863928,
      "lat": 46.6296155,
      "lon": 12.7199201,
      "tags": {
        "alt_name:de": "Jochkouvl",
        "ele": "2694",
        "name": "Monte Peralba",
        "name:de": "Hochweißstein",
        "natural": "peak",
        "summit:cross": "yes",
        "summit:register": "yes",
        "wikidata": "Q949153",
        "wikipedia": "it:Monte Peralba"
      }
    },
    {
      "type": "node",
      "id": 26863933,
      "lat": 46.5361065,
      "lon": 10.2275001,
      "tags": {
        "ele": "2932",
        "name": "Monte Pettini",
        "natural": "peak"
      }
    },
    {
      "type": "node",
      "id": 26863975,
      "lat": 46.3979210,
      "lon": 10.4377799,
      "tags": {
        "ele": "3296",
        "name": "Monte Sobretta",
        "natural": "peak",
        "summit:cross": "Yes",
        "wikidata": "Q937491",
        "wikipedia": "it:Monte Sobretta"
      }
    },
    {
      "type": "node",
      "id": 26863982,
      "lat": 45.8730129,
      "lon": 7.9706991,
      "tags": {
        "ele": "2964",
        "name": "Monte Tagliaferro",
        "natural": "peak",
        "source": "pcn 2006+gps",
        "wikidata": "Q3862053",
        "wikipedia": "it:Monte Tagliaferro"
      }
    },
    {
      "type": "node",
      "id": 26864004,
      "lat": 44.6674397,
      "lon": 7.0899880,
      "tags": {
        "alt_name": "Punta Trieste",
        "ele": "3841",
        "name": "Monviso",
        "name:fr": "Mont Viso",
        "natural": "peak",
        "prominence": "2062",
        "source:prominence": "https://en.wikipedia.org/wiki/List_of_European_ultra-prominent_peaks",
        "summit:cross": "yes",
        "wikidata": "Q1248",
        "wikipedia": "it:Monviso"
      }
    },
    {
      "type": "node",
      "id": 26864010,
      "lat": 46.1852902,
      "lon": 10.3985760,
      "tags": {
        "cross:material": "wood",
        "ele": "2881",
        "name": "Monte Aviolo",
        "natural": "peak",
        "summit:cross": "yes"
      }
    },
    {
      "type": "node",
      "id": 26864045,
      "lat": 47.0600986,
      "lon": 12.0396158,
      "tags": {
        "ele": "3144",
        "name": "Napfspitz",
        "name:de": "Napfspitze",
        "name:it": "Cima Cadini",
        "natural": "peak",
        "wikidata": "Q1964857",
        "wikipedia": "de:Napfspitze (Zillertaler Hauptkamm)"
      }
    },
    {
      "type": "node",
      "id": 26864153,
      "lat": 46.5090520,
      "lon": 10.5449250,
      "tags": {
        "ele": "3905",
        "name": "Ortler - Ortles",
        "name:de": "Ortler",
        "name:it": "Ortles",
        "natural": "peak",
        "power": "Nejvyšší hora Rakouska-Uherska",
        "prominence": "1953",
        "summit:cross": "yes",
        "wikidata": "Q650695",
        "wikipedia": "de:Ortler"
      }
    },
    {
      "type": "node",
      "id": 26864250,
      "lat": 46.9124260,
      "lon": 11.5932061,
      "tags": {
        "ele": "3135",
        "name": "Wilde Kreuzspitze - Picco della Croce",
        "name:de": "Wilde Kreuzspitze",
        "name:it": "Picco della Croce",
        "natural": "peak",
        "wikidata": "Q655998",
        "wikipedia": "it:Picco della Croce"
      }
    },
    {
      "type": "node",
      "id": 26864251,
      "lat": 46.6725105,
      "lon": 12.1855479,
      "tags": {
        "ele": "2842",
        "name": "Dürrenstein - Picco di Vallandro",
        "name:de": "Dürrenstein",
        "name:it": "Picco di Vallandro",
        "natural": "peak",
        "source": "https://www.drei-zinnen.info/media/175385bb-96fc-4c66-bd96-3186c087b360/monografie-wandern-2017-internet.pdf",
        "summit:cross": "yes",
        "wikidata": "Q446034",
        "wikipedia": "it:Picco di Vallandro"
      }
    },
    {
      "type": "node",
      "id": 26864292,
      "lat": 46.5758790,
      "lon": 11.9785864,
      "tags": {
        "ele": "3064",
        "name": "Piz dles Cunturines",
        "name:de": "Cunturines-Spitze",
        "name:it": "Piz dles Cunturines",
        "natural": "peak",
        "wikidata": "Q1144124",
        "wikipedia": "it:Cima Cunturines"
      }
    },
    {
      "type": "node",
      "id": 26864315,
      "lat": 45.9345913,
      "lon": 9.8158164,
      "tags": {
        "ele": "2512",
        "man_made": "cross",
        "name": "Pizzo Arera",
        "natural": "peak",
        "summit:cross": "yes",
        "wikidata": "Q3905978",
        "wikipedia": "it:Pizzo Arera"
      }
    },
    {
      "type": "node",
      "id": 26864320,
      "lat": 45.9565995,
      "lon": 10.0555039,
      "tags": {
        "alt_name": "Pizzo della Presolana",
        "ele": "2521",
        "name": "Presolana Occidentale",
        "natural": "peak",
        "summit:cross": "yes"
      }
    },
    {
      "type": "node",
      "id": 26864322,
      "lat": 46.2647222,
      "lon": 8.2380556,
      "tags": {
        "ele": "2905",
        "name": "Pizzo Diei",
        "natural": "peak",
        "wikidata": "Q3158279",
        "wikipedia": "it:Pizzo Diei"
      }
    },
    {
      "type": "node",
      "id": 26864324,
      "lat": 46.1792743,
      "lon": 8.1965938,
      "tags": {
        "ele": "2658",
        "name": "Pizzo Giezza",
        "natural": "peak"
      }
    },
    {
      "type": "node",
      "id": 26864327,
      "lat": 46.3814813,
      "lon": 9.4214446,
      "tags": {
        "ele": "3163",
        "name": "Pizzo Stella",
        "natural": "peak",
        "summit:cross": "yes",
        "wikidata": "Q1633056",
        "wikipedia": "it:Pizzo Stella"
      }
    },
    {
      "type": "node",
      "id": 26864374,
      "lat": 46.7372658,
      "lon": 11.2765135,
      "tags": {
        "ele": "2781",
        "man_made": "cross",
        "name": "Hirzer - Punta Cervina",
        "name:de": "Hirzer",
        "name:it": "Punta Cervina",
        "natural": "peak",
        "wikidata": "Q568838",
        "wikipedia": "it:Punta Cervina"
      }
    },
    {
      "type": "node",
      "id": 26864376,
      "lat": 46.5513917,
      "lon": 12.0141632,
      "tags": {
        "ele": "2989",
        "name": "Punta di mezzo di Fanes",
        "natural": "peak"
      }
    },
    {
      "type": "node",
      "id": 26864383,
      "lat": 46.5069444,
      "lon": 12.2116667,
      "tags": {
        "ele": "3205",
        "name": "Punta Sorapiss",
        "natural": "peak",
        "prominence": "1085"
      }
    },
    {
      "type": "node",
      "id": 26864385,
      "lat": 45.6203085,
      "lon": 7.4761238,
      "tags": {
        "ele": "3513",
        "name": "Punta Tersiva",
        "name:fr": "Pointe Tersive",
        "natural": "peak",
        "note": "riposizionato su base pcn2006 e gps",
        "source": "pcn2006+gps",
        "summit:cross": "yes",
        "wikidata": "Q787458",
        "wikipedia": "it:Punta Tersiva"
      }
    },
    {
      "type": "node",
      "id": 26864459,
      "lat": 46.6886111,
      "lon": 12.2775000,
      "tags": {
        "ele": "2937",
        "name": "Haunold - Rocca dei Baranci",
        "name:de": "Haunold",
        "name:it": "Rocca dei Baranci",
        "natural": "peak",
        "wikidata": "Q1589375",
        "wikipedia": "it:Rocca dei Baranci"
      }
    },
    {
      "type": "node",
      "id": 26864540,
      "lat": 46.6092937,
      "lon": 11.7667925,
      "tags": {
        "ele": "3025",
        "name": "Sas Rigais",
        "name:de": "Sass Rigais",
        "name:it": "Sass Rigais",
        "name:lld": "Sas Rigais",
        "natural": "peak",
        "summit:cross": "yes",
        "wikidata": "Q1935898",
        "wikipedia": "de:Sass Rigais"
      }
    },
    {
      "type": "node",
      "id": 26864542,
      "lat": 46.1636111,
      "lon": 11.9252778,
      "tags": {
        "ele": "2547",
        "loc_name": "Sass de Mura",
        "name": "Sass di Mura",
        "natural": "peak",
        "prominence": "1178",
        "wikidata": "Q3940595",
        "wikipedia": "it:Sass de Mura"
      }
    },
    {
      "type": "node",
      "id": 26864543,
      "lat": 46.5249262,
      "lon": 11.7351598,
      "tags": {
        "ele": "3181",
        "name": "Saslonch - Langkofel - Sassolungo",
        "name:de": "Langkofel",
        "name:it": "Sassolungo",
        "name:lld": "Saslonch",
        "natural": "peak",
        "prominence": "1125",
        "wikidata": "Q1805312",
        "wikipedia": "de:Langkofel"
      }
    },
    {
      "type": "node",
      "id": 26864897,
      "lat": 46.2661111,
      "lon": 12.1558333,
      "tags": {
        "ele": "2542",
        "man_made": "survey_point",
        "name": "Talvena",
        "natural": "peak",
        "wikidata": "Q3862059",
        "wikipedia": "it:Monte Talvena"
      }
    },
    {
      "type": "node",
      "id": 26864899,
      "lat": 46.3092021,
      "lon": 12.1212607,
      "tags": {
        "ele": "2547",
        "name": "Tamer Grande",
        "natural": "peak"
      }
    },
    {
      "type": "node",
      "id": 26864908,
      "lat": 46.5269091,
      "lon": 12.6216336,
      "tags": {
        "ele": "2586",
        "name": "Terza Grande",
        "name:de": "Plichenkofel",
        "natural": "peak",
        "prominence": "1277",
        "summit:cross": "yes",
        "summit:register": "yes",
        "wikidata": "Q3862066",
        "wikipedia": "it:Monte Terza Grande"
      }
    },
    {
      "type": "node",
      "id": 26864911,
      "lat": 45.8308380,
      "lon": 7.7866329,
      "tags": {
        "alt_name": "Groabhopt",
        "ele": "3314",
        "name": "Testa Grigia",
        "natural": "peak",
        "summit:cross": "yes",
        "summit:register": "yes",
        "wikidata": "Q3985156",
        "wikipedia": "it:Testa Grigia (Alpi Pennine)"
      }
    },
    {
      "type": "node",
      "id": 26864914,
      "lat": 44.4400830,
      "lon": 6.9348918,
      "tags": {
        "alt_name": "Tête de Moïse",
        "ele": "3104",
        "name": "Monte Oronaye",
        "name:fr": "Tête de Moïse",
        "natural": "peak",
        "wikidata": "Q3861796",
        "wikipedia": "it:Monte Oronaye"
      }
    },
    {
      "type": "node",
      "id": 26864932,
      "lat": 46.5510125,
      "lon": 12.0655000,
      "tags": {
        "ele": "3244",
        "name": "Tofana di Mezzo",
        "natural": "peak",
        "prominence": "1368",
        "wikidata": "Q24764720"
      }
    },
    {
      "type": "node",
      "id": 26864933,
      "lat": 46.5370080,
      "lon": 12.0510530,
      "tags": {
        "ele": "3225",
        "name": "Tofana di Rozes",
        "natural": "peak",
        "wikidata": "Q24764881"
      }
    },
    {
      "type": "node",
      "id": 26865132,
      "lat": 46.7978232,
      "lon": 10.7260620,
      "tags": {
        "ele": "3738",
        "name": "Weißkugel - Palla Bianca",
        "name:de": "Weißkugel",
        "name:it": "Palla Bianca",
        "natural": "peak",
        "wikidata": "Q701816",
        "wikipedia": "it:Palla Bianca"
      }
    },
    {
      "type": "node",
      "id": 94950233,
      "lat": 46.7687255,
      "lon": 10.6706547,
      "tags": {
        "alt_name": "Valvelspitze",
        "ele": "3360",
        "name": "Südliche Valvelspitze",
        "natural": "peak",
        "wikidata": "Q7912838"
      }
    },
    {
      "type": "node",
      "id": 206140857,
      "lat": 46.1858428,
      "lon": 10.6065497,
      "tags": {
        "ele": "2636",
        "name": "Menicigolo",
        "natural": "peak",
        "wikidata": "Q31635598"
      }
    },
    {
      "type": "node",
      "id": 256041703,
      "lat": 46.9705175,
      "lon": 11.1899934,
      "tags": {
        "ele": "3418",
        "name": "Wilder Freiger - Cima Libera",
        "name:de": "Wilder Freiger",
        "name:it": "Cima Libera",
        "natural": "peak",
        "wikidata": "Q180378",
        "wikipedia": "it:Cima Libera"
      }
    },
    {
      "type": "node",
      "id": 256041797,
      "lat": 46.9779378,
      "lon": 11.7181142,
      "tags": {
        "ele": "3470",
        "name": "Hochferner - Gran Vedretta",
        "name:de": "Hochferner",
        "name:it": "Gran Vedretta",
        "natural": "peak",
        "wikidata": "Q873287"
      }
    },
    {
      "type": "node",
      "id": 256041842,
      "lat": 46.7654482,
      "lon": 11.0222673,
      "tags": {
        "alt_name:de": "Hohe Wilde",
        "ele": "3482",
        "name": "Hochwilde - Cima Altissima",
        "name:de": "Hochwilde",
        "name:it": "Cima Altissima",
        "natural": "peak",
        "summit:cross": "yes",
        "wikidata": "Q668470",
        "wikipedia": "de:Hochwilde"
      }
    },
    {
      "type": "node",
      "id": 256041857,
      "lat": 46.7721198,
      "lon": 10.9749815,
      "tags": {
        "alt_name:de": "Grubspitze",
        "ele": "3463",
        "name": "Karlesspitze - Cima di Quaira",
        "name:de": "Karlesspitze",
        "name:it": "Cima di Quaira",
        "natural": "peak",
        "source": "basemap.at",
        "wikidata": "Q662876",
        "wikipedia": "de:Karlesspitze"
      }
    },
    {
      "type": "node",
      "id": 256042795,
      "lat": 46.8015987,
      "lon": 11.0443642,
      "tags": {
        "ele": "3475",
        "name": "Hinterer Seelenkogel - Cima delle Anime",
        "name:de": "Hinterer Seelenkogel",
        "name:it": "Cima delle Anime",
        "natural": "peak",
        "source": "https://www.passeier.org/archiv/passeier/passeier-panorama.pdf",
        "summit:cross": "yes",
        "summit:register": "yes",
        "wikidata": "Q673009",
        "wikipedia": "it:Cima delle Anime"
      }
    },
    {
      "type": "node",
      "id": 256042799,
      "lat": 46.7636820,
      "lon": 10.8806482,
      "tags": {
        "ele": "3606",
        "name": "Similaun",
        "natural": "peak",
        "summit:cross": "yes",
        "wikidata": "Q697937",
        "wikipedia": "it:Similaun"
      }
    },
    {
      "type": "node",
      "id": 256042828,
      "lat": 46.9851007,
      "lon": 11.3401486,
      "tags": {
        "ele": "3097",
        "name": "Pflerscher Tribulaun - Tribulaun di Fleres",
        "name:de": "Pflerscher Tribulaun",
        "name:it": "Tribulaun di Fleres",
        "natural": "peak",
        "wikidata": "Q2084247",
        "wikipedia": "de:Pflerscher Tribulaun"
      }
    },
    {
      "type": "node",
      "id": 256042853,
      "lat": 46.9688703,
      "lon": 11.7470355,
      "tags": {
        "ele": "3371",
        "name": "Hoher Weißzint - Punta Bianca",
        "name:de": "Hoher Weißzint",
        "name:it": "Punta Bianca",
        "natural": "peak",
        "wikidata": "Q662994",
        "wikipedia": "it:Punta Bianca (Alpi della Zillertal)"
      }
    },
    {
      "type": "node",
      "id": 256042855,
      "lat": 46.8462323,
      "lon": 10.7168691,
      "tags": {
        "ele": "3510",
        "name": "Weißseespitze - Cima del Lago Bianco",
        "name:de": "Weißseespitze",
        "name:it": "Cima del Lago Bianco",
        "natural": "peak",
        "wikidata": "Q871863",
        "wikipedia": "it:Cima del Lago Bianco"
      }
    },
    {
      "type": "node",
      "id": 256057437,
      "lat": 46.9655114,
      "lon": 11.2438947,
      "tags": {
        "ele": "3194",
        "name": "Aglsspitze - Cima dell Accla",
        "name:de": "Aglsspitze",
        "name:it": "Cima dell Accla",
        "natural": "peak",
        "wikidata": "Q393254",
        "wikipedia": "it:Cima dell'Accla"
      }
    },
    {
      "type": "node",
      "id": 256057446,
      "lat": 46.9310629,
      "lon": 11.1981473,
      "tags": {
        "ele": "3251",
        "name": "Botzer - Il Capro",
        "name:de": "Botzer",
        "name:it": "Il Capro",
        "natural": "peak",
        "wikidata": "Q894934"
      }
    },
    {
      "type": "node",
      "id": 279835477,
      "lat": 46.5631204,
      "lon": 11.8352476,
      "tags": {
        "ele": "2667",
        "name": "Sass da Ciampac",
        "natural": "peak"
      }
    },
    {
      "type": "node",
      "id": 281163095,
      "lat": 46.1994171,
      "lon": 11.5107524,
      "tags": {
        "ele": "2598",
        "importance": "suburban",
        "name": "Cima delle Stellune",
        "natural": "peak",
        "source:ele": "3rd Military Mapping Survey of Austria-Hungary",
        "wikidata": "Q17625363",
        "wikipedia": "it:Cima delle Stellune"
      }
    },
    {
      "type": "node",
      "id": 281399025,
      "lat": 45.8327057,
      "lon": 6.8651706,
      "tags": {
        "dispute:wikipedia": "fr:Histoire de la frontière sur le mont Blanc",
        "ele": "4808.73",
        "importance": "international",
        "isolation": "2812",
        "name": "Mont Blanc - Monte Bianco",
        "name:be": "Манблан",
        "name:cs": "Mont Blanc",
        "name:es": "Mont Blanc",
        "name:fr": "Mont Blanc",
        "name:he": "מון בלאן",
        "name:it": "Monte Bianco",
        "name:ja": "モンブラン",
        "name:lt": "Monblanas",
        "name:ru": "Монблан",
        "name:tt": "Монблан",
        "name:uk": "Монблан",
        "name:zh": "勃朗峰",
        "natural": "peak",
        "note": "Ownership of the summit and dispute https://en.wikipedia.org/wiki/Mont_Blanc",
        "prominence": "4696",
        "source": "cadastre-dgi-fr source : Direction Générale des Impôts - Cadastre. Mise à jour : 2009",
        "source:ele": "IGN measurements 2015",
        "summit:cross": "no",
        "wikidata": "Q583",
        "wikipedia": "fr:Mont Blanc"
      }
    },
    {
      "type": "node",
      "id": 282202699,
      "lat": 46.2168382,
      "lon": 11.5446191,
      "tags": {
        "ele": "2560",
        "importance": "suburban",
        "name": "Cimon di Lasteolo",
        "natural": "peak",
        "source:ele": "Kompass 626 map"
      }
    },
    {
      "type": "node",
      "id": 282202872,
      "lat": 46.2253087,
      "lon": 11.5588820,
      "tags": {
        "ele": "2549",
        "importance": "urban",
        "name": "Cima Litegosa",
        "natural": "peak",
        "source:ele": "Kompass 626 map",
        "wikidata": "Q3676741",
        "wikipedia": "it:Cima Litegosa"
      }
    },
    {
      "type": "node",
      "id": 285907064,
      "lat": 45.5820934,
      "lon": 7.4851534,
      "tags": {
        "ele": "3034",
        "name": "Testa della Nouva",
        "name:fr": "Tête-de-la-Nouva",
        "natural": "peak",
        "source": "Carta Tecnica Regione VDA"
      }
    },
    {
      "type": "node",
      "id": 285907239,
      "lat": 45.5833566,
      "lon": 7.4991345,
      "tags": {
        "ele": "3021",
        "name": "Cima di Peradzà",
        "name:fr": "Pointe de Peradzà",
        "natural": "peak"
      }
    },
    {
      "type": "node",
      "id": 285908323,
      "lat": 45.6038534,
      "lon": 7.4943278,
      "tags": {
        "ele": "3101",
        "name": "Torre Ponton",
        "name:fr": "Tour Ponton",
        "natural": "peak",
        "wikidata": "Q18168793",
        "wikipedia": "it:Torre Ponton"
      }
    },
    {
      "type": "node",
      "id": 285909628,
      "lat": 45.6314756,
      "lon": 7.5394240,
      "tags": {
        "ele": "3185",
        "name": "Mont Glacier",
        "natural": "peak",
        "source": "Carta Tecnica Regione VDA",
        "wikidata": "Q3321858",
        "wikipedia": "it:Mont Glacier"
      }
    },
    {
      "type": "node",
      "id": 286281497,
      "lat": 46.3811715,
      "lon": 11.5751561,
      "tags": {
        "alt_name:de": "Westliche Latemarspitze",
        "alt_name:it": "Torre Diamantidi",
        "ele": "2842",
        "importance": "regional",
        "loc_name:de": "Großer Latemarturm",
        "name": "Cimon del Latemar - Diamantiditurm",
        "name:de": "Diamantiditurm",
        "name:en": "Diamantidi Tower",
        "name:it": "Cimon del Latemar",
        "natural": "peak",
        "old_name": "Latemar-Hauptturm",
        "prominence": "1097",
        "wikidata": "Q593456",
        "wikipedia": "it:Cimon del Latemar"
      }
    },
    {
      "type": "node",
      "id": 286281609,
      "lat": 46.3831613,
      "lon": 11.5823625,
      "tags": {
        "ele": "2791",
        "name": "Schénon del Latemar - Östliche Latemarspitze",
        "name:de": "Östliche Latemarspitze",
        "name:it": "Schénon del Latemar",
        "natural": "peak"
      }
    },
    {
      "type": "node",
      "id": 292238630,
      "lat": 46.4024310,
      "lon": 11.7129645,
      "tags": {
        "ele": "2550",
        "name": "Cima Undici",
        "natural": "peak"
      }
    },
    {
      "type": "node",
      "id": 294126021,
      "lat": 46.6343869,
      "lon": 10.5081776,
      "tags": {
        "ele": "2533",
        "name": "Monte Plagabella - Plaschweller",
        "name:de": "Plaschweller",
        "name:it": "Monte Plagabella",
        "natural": "peak",
        "source": "http://www.summitpost.org/plaschweller-monte-plagabella/524696"
      }
    },
    {
      "type": "node",
      "id": 294126023,
      "lat": 46.6151164,
      "lon": 10.4922941,
      "tags": {
        "ele": "2763",
        "name": "Piz Chavalatsch",
        "natural": "peak",
        "wikidata": "Q525419",
        "wikipedia": "it:Monte Cavallaccio"
      }
    },
    {
      "type": "node",
      "id": 298291892,
      "lat": 46.1824426,
      "lon": 10.6842505,
      "tags": {
        "ele": "2582",
        "name": "Cima Tamalè",
        "natural": "peak"
      }
    },
    {
      "type": "node",
      "id": 298291895,
      "lat": 46.1898703,
      "lon": 10.6638657,
      "tags": {
        "ele": "3015",
        "name": "Cimon della Gere",
        "natural": "peak",
        "wikidata": "Q31636641",
        "wikipedia": "ceb:Cimon della Gere"
      }
    },
    {
      "type": "node",
      "id": 298291974,
      "lat": 46.1353306,
      "lon": 10.5859892,
      "tags": {
        "ele": "3402",
        "name": "Corno di Cavento",
        "natural": "peak",
        "wikidata": "Q3693772",
        "wikipedia": "it:Corno di Cavento"
      }
    },
    {
      "type": "node",
      "id": 298291985,
      "lat": 46.1795614,
      "lon": 10.5709738,
      "tags": {
        "ele": "3036",
        "name": "Lobbia di Mezzo",
        "natural": "peak"
      }
    },
    {
      "type": "node",
      "id": 298467635,
      "lat": 46.5064916,
      "lon": 10.6913201,
      "tags": {
        "ele": "2586",
        "name": "Pederköpfl",
        "name:it": "Dosso di Peder",
        "natural": "peak"
      }
    },
    {
      "type": "node",
      "id": 300982974,
      "lat": 45.9145811,
      "lon": 7.4223093,
      "tags": {
        "ele": "3531",
        "name": "Bec d'Épicoune",
        "natural": "peak",
        "note": "Su Guida Monti d'Italia il Toponimo è Becca Rayette 3529, anche su più recente cartografia cartacea Italiana (2009) il toponimo è Becca Rayette con quota 3527",
        "wikidata": "Q3637372"
      }
    },
    {
      "type": "node",
      "id": 301549910,
      "lat": 46.8594369,
      "lon": 11.6867013,
      "tags": {
        "ele": "2510",
        "name": "Gitsch - Monte Cuzzo",
        "name:de": "Gitsch",
        "name:it": "Monte Cuzzo",
        "natural": "peak",
        "wikidata": "Q1527722",
        "wikipedia": "it:Monte Cuzzo"
      }
    },
    {
      "type": "node",
      "id": 302129853,
      "lat": 46.5440663,
      "lon": 10.8588813,
      "tags": {
        "ele": "3257",
        "name": "Hasenöhrl - L'Orecchia di Lepre",
        "name:de": "Hasenöhrl",
        "name:it": "L'Orecchia di Lepre",
        "natural": "peak",
        "wikidata": "Q1588411",
        "wikipedia": "it:Orecchia di Lepre"
      }
    },
    {
      "type": "node",
      "id": 306970230,
      "lat": 44.1871412,
      "lon": 7.1936925,
      "tags": {
        "ele": "2795",
        "name": "Cime de Tavels",
        "natural": "peak"
      }
    },
    {
      "type": "node",
      "id": 306981456,
      "lat": 44.3867542,
      "lon": 7.1029059,
      "tags": {
        "ele": "2620",
        "name": "Cima di Test",
        "natural": "peak"
      }
    },
    {
      "type": "node",
      "id": 306981723,
      "lat": 44.3915039,
      "lon": 7.0888910,
      "tags": {
        "ele": "2775",
        "name": "Becco Grande",
        "natural": "peak"
      }
    },
    {
      "type": "node",
      "id": 306982367,
      "lat": 44.3971882,
      "lon": 7.0097756,
      "tags": {
        "ele": "2701",
        "name": "Bric Bernoir",
        "natural": "peak"
      }
    },
    {
      "type": "node",
      "id": 307153980,
      "lat": 45.7420532,
      "lon": 7.9304552,
      "tags": {
        "alt_name": "Monte Cossarello",
        "ele": "2726",
        "name": "Cima Morticci",
        "natural": "peak",
        "source": "Carta Tecnica Regione VDA"
      }
    },
    {
      "type": "node",
      "id": 307195544,
      "lat": 45.8872044,
      "lon": 7.0066752,
      "tags": {
        "ele": "3759",
        "name": "Aiguille de Leschaux",
        "natural": "peak",
        "wikidata": "Q1151985",
        "wikipedia": "it:Aiguille de Leschaux"
      }
    },
    {
      "type": "node",
      "id": 307195567,
      "lat": 45.8931672,
      "lon": 7.0030077,
      "tags": {
        "ele": "3599",
        "name": "Aiguille de l'Eboulement",
        "natural": "peak",
        "source": "Carta Tecnica Regione VDA",
        "wikidata": "Q1657146",
        "wikipedia": "it:Aiguille de l'Éboulement"
      }
    },
    {
      "type": "node",
      "id": 307195579,
      "lat": 45.8994990,
      "lon": 7.0037821,
      "tags": {
        "ele": "3730",
        "name": "Aiguille de Talèfre",
        "natural": "peak",
        "wikidata": "Q1578316",
        "wikipedia": "it:Aiguille de Talèfre"
      }
    },
    {
      "type": "node",
      "id": 307195602,
      "lat": 45.9206211,
      "lon": 7.0310586,
      "tags": {
        "ele": "3648",
        "name": "Pointe du Domino",
        "natural": "peak"
      }
    },
    {
      "type": "node",
      "id": 307218738,
      "lat": 45.9960011,
      "lon": 7.9890270,
      "tags": {
        "ele": "3036",
        "name": "Joderhorn",
        "natural": "peak",
        "wikidata": "Q1670771",
        "wikipedia": "it:Joderhorn"
      }
    },
    {
      "type": "node",
      "id": 307219462,
      "lat": 45.9969671,
      "lon": 7.9086960,
      "tags": {
        "ele": "3609",
        "name": "Schwarzberghorn",
        "natural": "peak",
        "wikidata": "Q2080623",
        "wikipedia": "it:Schwarzberghorn"
      }
    },
    {
      "type": "node",
      "id": 307224472,
      "lat": 46.0119878,
      "lon": 8.0123972,
      "tags": {
        "ele": "3059",
        "name": "Ofentalhorn",
        "natural": "peak"
      }
    },
    {
      "type": "node",
      "id": 307230906,
      "lat": 46.0483510,
      "lon": 9.8306511,
      "tags": {
        "ele": "2572",
        "name": "Pizzo Zerna",
        "natural": "peak",
        "summit:cross": "yes",
        "wikidata": "Q3906024",
        "wikipedia": "it:Pizzo Zerna"
      }
    },
    {
      "type": "node",
      "id": 307242905,
      "lat": 46.1008515,
      "lon": 8.0347232,
      "tags": {
        "ele": "3654",
        "name": "Pizzo d'Andolla",
        "name:de": "Portjengrat",
        "name:it": "Pizzo d'Andolla",
        "natural": "peak",
        "wikidata": "Q668604",
        "wikipedia": "it:Pizzo d'Andolla"
      }
    },
    {
      "type": "node",
      "id": 307261224,
      "lat": 46.2261526,
      "lon": 8.1388826,
      "tags": {
        "ele": "2856",
        "name": "Punta Valgrande",
        "natural": "peak",
        "wikidata": "Q3647305"
      }
    },
    {
      "type": "node",
      "id": 307264189,
      "lat": 46.2404459,
      "lon": 10.6861845,
      "tags": {
        "ele": "3252",
        "name": "Cima Scarpaco",
        "natural": "peak"
      }
    },
    {
      "type": "node",
      "id": 307271040,
      "lat": 46.2928922,
      "lon": 9.7144877,
      "tags": {
        "ele": "3327",
        "name": "Monte Sissone",
        "natural": "peak",
        "source": "Regione Lombardia - La banca dati territoriali CTR10000 e' prodotta da Regione Lombardia - Infrastruttura per l'Informazione Territoriale"
      }
    },
    {
      "type": "node",
      "id": 307271043,
      "lat": 46.2943382,
      "lon": 9.5831489,
      "tags": {
        "ele": "3169",
        "name": "Punta Sant'Anna",
        "natural": "peak",
        "source": "Regione Lombardia - La banca dati territoriali CTR10000 e' prodotta da Regione Lombardia - Infrastruttura per l'Informazione Territoriale"
      }
    },
    {
      "type": "node",
      "id": 307278012,
      "lat": 46.3547782,
      "lon": 12.4176790,
      "tags": {
        "ele": "2556",
        "name": "Cima Laste",
        "name:fur": "Cime Lastis",
        "natural": "peak"
      }
    },
    {
      "type": "node",
      "id": 307300802,
      "lat": 46.6569759,
      "lon": 12.6906425,
      "tags": {
        "ele": "2524",
        "name": "Steinkarspitz / Monte Antola",
        "name:de": "Steinkarspitz",
        "name:it": "Monte Antola",
        "natural": "peak"
      }
    },
    {
      "type": "node",
      "id": 307303031,
      "lat": 46.7017653,
      "lon": 11.2754236,
      "tags": {
        "ele": "2680",
        "name": "Vorderer Verdinser Plattenspitz - Laste di Verdines (di fuori)",
        "name:de": "Vorderer Verdinser Plattenspitz",
        "name:it": "Laste di Verdines (di fuori)",
        "natural": "peak"
      }
    },
    {
      "type": "node",
      "id": 307303167,
      "lat": 46.7051442,
      "lon": 10.4088982,
      "tags": {
        "ele": "3134",
        "name": "Foratrida",
        "natural": "peak",
        "source": "https://map.schweizmobil.ch",
        "wikidata": "Q22490333"
      }
    },
    {
      "type": "node",
      "id": 307303747,
      "lat": 46.6679905,
      "lon": 12.3176121,
      "tags": {
        "ele": "3151",
        "name": "Punta tre scarperi - Dreischusterspitze",
        "name:de": "Dreischusterspitze",
        "name:it": "Punta tre scarperi",
        "natural": "peak",
        "prominence": "1393",
        "wikidata": "Q380419",
        "wikipedia": "it:Punta dei Tre Scarperi"
      }
    },
    {
      "type": "node",
      "id": 307305240,
      "lat": 46.7725870,
      "lon": 11.1474116,
      "tags": {
        "ele": "2868",
        "name": "Kolbenspitze - La Clava",
        "name:de": "Kolbenspitze",
        "name:it": "La Clava",
        "natural": "peak",
        "reg_name": "Kolbner",
        "source": "survey",
        "summit:cross": "yes",
        "wikidata": "Q2302812"
      }
    },
    {
      "type": "node",
      "id": 307306823,
      "lat": 46.8036339,
      "lon": 11.3716254,
      "tags": {
        "ele": "2592",
        "name": "Ötsch - Cima d'Accia",
        "name:de": "Ötsch",
        "name:it": "Cima d'Accia",
        "natural": "peak"
      }
    },
    {
      "type": "node",
      "id": 307308431,
      "lat": 46.8702844,
      "lon": 11.7555991,
      "tags": {
        "ele": "2738",
        "loc_name": "Hegedex",
        "name": "Eidechsspitz - Cima di Terento",
        "name:de": "Eidechsspitz",
        "name:it": "Cima di Terento",
        "natural": "peak",
        "summit:cross": "yes",
        "wikidata": "Q19696237"
      }
    },
    {
      "type": "node",
      "id": 307308450,
      "lat": 46.8802763,
      "lon": 11.7698850,
      "tags": {
        "ele": "2756",
        "name": "Kleiner Grubbachspitz - Rocca dei Camosci",
        "name:de": "Kleiner Grubbachspitz",
        "name:it": "Rocca dei Camosci",
        "natural": "peak",
        "wikidata": "Q31668235"
      }
    },
    {
      "type": "node",
      "id": 307308457,
      "lat": 46.8825081,
      "lon": 11.7697254,
      "tags": {
        "ele": "2809",
        "name": "Hochgrubbachspitz - Monte Gruppo",
        "name:de": "Hochgrubbachspitz",
        "name:it": "Monte Gruppo",
        "natural": "peak"
      }
    },
    {
      "type": "node",
      "id": 307308940,
      "lat": 46.8845544,
      "lon": 11.5883696,
      "tags": {
        "ele": "2584",
        "name": "Blauer Stoan",
        "natural": "peak"
      }
    },
    {
      "type": "node",
      "id": 307308947,
      "lat": 46.8783579,
      "lon": 11.5936382,
      "tags": {
        "ele": "2696",
        "name": "Schwarzenstoan",
        "natural": "peak"
      }
    },
    {
      "type": "node",
      "id": 307309317,
      "lat": 46.9271722,
      "lon": 11.6137556,
      "tags": {
        "ele": "2755",
        "name": "Sandturm - Cima della Rena",
        "name:de": "Sandturm",
        "name:it": "Cima della Rena",
        "natural": "peak"
      }
    },
    {
      "type": "node",
      "id": 307309324,
      "lat": 46.9258830,
      "lon": 11.6180660,
      "tags": {
        "ele": "2719",
        "name": "Sandspitz",
        "natural": "peak"
      }
    },
    {
      "type": "node",
      "id": 307309331,
      "lat": 46.9259446,
      "lon": 11.6230271,
      "tags": {
        "ele": "2787",
        "name": "Rübespitz - Punta Riva",
        "name:de": "Rübespitz",
        "name:it": "Punta Riva",
        "natural": "peak",
        "wikidata": "Q3925713",
        "wikipedia": "it:Punta Riva"
      }
    },
    {
      "type": "node",
      "id": 307309389,
      "lat": 46.8901618,
      "lon": 11.6611425,
      "tags": {
        "ele": "2695",
        "name": "Bretterspitz - Cima di San Paolo",
        "name:de": "Bretterspitz",
        "name:it": "Cima di San Paolo",
        "natural": "peak"
      }
    },
    {
      "type": "node",
      "id": 307309396,
      "lat": 46.8708240,
      "lon": 11.6769625,
      "tags": {
        "ele": "2568",
        "name": "Fallmetzer - Monte Val di Mezzo",
        "name:de": "Fallmetzer",
        "name:it": "Monte Val di Mezzo",
        "natural": "peak"
      }
    },
    {
      "type": "node",
      "id": 307309903,
      "lat": 46.9575211,
      "lon": 11.7360119,
      "tags": {
        "ele": "3263",
        "name": "Niederer Weißzint - Punta Bianca Bassa",
        "name:de": "Niederer Weißzint",
        "name:it": "Punta Bianca Bassa",
        "natural": "peak"
      }
    },
    {
      "type": "node",
      "id": 307309948,
      "lat": 46.9083197,
      "lon": 11.7387718,
      "tags": {
        "ele": "2584",
        "name": "Blauwand",
        "natural": "peak"
      }
    },
    {
      "type": "node",
      "id": 307310170,
      "lat": 46.9885081,
      "lon": 12.0770572,
      "tags": {
        "ele": "2862",
        "name": "Schwarzerspitz",
        "natural": "peak"
      }
    },
    {
      "type": "node",
      "id": 307310194,
      "lat": 46.9523665,
      "lon": 11.8132157,
      "tags": {
        "ele": "2703",
        "name": "Schaflahnernock - Cima delle Pecore",
        "name:de": "Schaflahnernock",
        "name:it": "Cima delle Pecore",
        "natural": "peak",
        "wikidata": "Q3676814",
        "wikipedia": "it:Cima delle Pecore"
      }
    },
    {
      "type": "node",
      "id": 307310206,
      "lat": 46.9471101,
      "lon": 11.8115749,
      "tags": {
        "ele": "2666",
        "name": "Weiße Wand - Croda Bianca",
        "name:de": "Weiße Wand",
        "name:it": "Croda Bianca",
        "natural": "peak"
      }
    },
    {
      "type": "node",
      "id": 307310264,
      "lat": 47.0068777,
      "lon": 12.1211282,
      "tags": {
        "ele": "3076",
        "name": "Gabelspitze",
        "name:de": "Gabelspitze",
        "name:it": "Cima di Forca",
        "natural": "peak"
      }
    },
    {
      "type": "node",
      "id": 307310376,
      "lat": 47.0079515,
      "lon": 12.1088444,
      "tags": {
        "ele": "2855",
        "name": "Kleiner Alprechtspitz",
        "natural": "peak"
      }
    },
    {
      "type": "node",
      "id": 307310796,
      "lat": 47.0585157,
      "lon": 12.0594921,
      "tags": {
        "ele": "2893",
        "name": "Wagnerschneid Spitz",
        "name:de": "Wagnerschneid Spitz",
        "name:it": "Cima Triangolo",
        "natural": "peak"
      }
    },
    {
      "type": "node",
      "id": 307311105,
      "lat": 47.0691684,
      "lon": 12.2407453,
      "tags": {
        "alt_name": "Dreiherrenspitze",
        "ele": "3499",
        "name": "Dreiherrnspitze",
        "name:it": "Picco dei Tre Signori",
        "natural": "peak",
        "wikidata": "Q663943",
        "wikipedia": "de:Dreiherrnspitze"
      }
    },
    {
      "type": "node",
      "id": 307676211,
      "lat": 45.7783901,
      "lon": 6.8025710,
      "tags": {
        "ele": "3815",
        "name": "Aiguille des Glaciers",
        "natural": "peak",
        "wikidata": "Q1705506",
        "wikipedia": "it:Aiguille des Glaciers"
      }
    },
    {
      "type": "node",
      "id": 309389245,
      "lat": 46.7060986,
      "lon": 11.5006501,
      "tags": {
        "ele": "2528",
        "name": "Ritzlar",
        "natural": "peak"
      }
    },
    {
      "type": "node",
      "id": 310107214,
      "lat": 46.6588558,
      "lon": 11.8205281,
      "tags": {
        "ele": "2875",
        "name": "Peitlerkofel - Sass de Pütia - Sass de Puta",
        "name:de": "Peitlerkofel",
        "name:it": "Sass de Putia",
        "name:lld": "Sass de Pütia",
        "natural": "peak",
        "wikidata": "Q2067685",
        "wikipedia": "it:Sass de Putia"
      }
    },
    {
      "type": "node",
      "id": 310256077,
      "lat": 46.5765777,
      "lon": 10.9568874,
      "tags": {
        "ele": "2737",
        "name": "Muttegrub",
        "natural": "peak",
        "source": "http://www.seilschaft.it/zz%20aa1%20gran%20ladro.htm"
      }
    },
    {
      "type": "node",
      "id": 310256078,
      "lat": 46.5688002,
      "lon": 10.9816986,
      "tags": {
        "ele": "2542",
        "name": "Peilstein - Il Sasso",
        "name:de": "Peilstein",
        "name:it": "Il Sasso",
        "natural": "peak",
        "source": "http://www.ultental-valdultimo.com/escursioni/alta-via-valcomai.html"
      }
    },
    {
      "type": "node",
      "id": 310256079,
      "lat": 46.5797025,
      "lon": 10.9671826,
      "tags": {
        "ele": "2711",
        "name": "Rontscher - Monte dei Romici",
        "name:de": "Rontscher",
        "name:it": "Monte dei Romici",
        "natural": "peak",
        "source": "http://www.ultental-valdultimo.com/escursioni/alta-via-valcomai.html"
      }
    },
    {
      "type": "node",
      "id": 310256080,
      "lat": 46.5858702,
      "lon": 10.9886147,
      "tags": {
        "ele": "2616",
        "loc_name": "Moarkuk",
        "name": "Schwarze",
        "natural": "peak",
        "reg_name": "Schwarzer"
      }
    },
    {
      "type": "node",
      "id": 310263098,
      "lat": 46.6927200,
      "lon": 11.0131649,
      "tags": {
        "ele": "3008",
        "name": "Zielspitze - Cima di Tel",
        "name:de": "Zielspitze",
        "name:it": "Cima di Tel",
        "natural": "peak",
        "source": "https://www.sentres.com/it/trekking/trekking-per-la-cima-di-tel-zielspitze",
        "summit:cross": "yes"
      }
    },
    {
      "type": "node",
      "id": 310438852,
      "lat": 46.6711660,
      "lon": 10.8923178,
      "tags": {
        "ele": "2914",
        "name": "Trumsspitze",
        "natural": "peak"
      }
    },
    {
      "type": "node",
      "id": 310438853,
      "lat": 46.6668004,
      "lon": 10.8871084,
      "tags": {
        "ele": "2904",
        "name": "Grubenspitze - Punta delle Fosse",
        "name:de": "Grubenspitze",
        "name:it": "Punta delle Fosse",
        "natural": "peak"
      }
    },
    {
      "type": "node",
      "id": 310461410,
      "lat": 46.7346823,
      "lon": 10.8802322,
      "tags": {
        "ele": "2815",
        "name": "Schröfwand",
        "natural": "peak"
      }
    },
    {
      "type": "node",
      "id": 313719257,
      "lat": 46.5118256,
      "lon": 11.5748922,
      "tags": {
        "ele": "2568",
        "name": "Petz - Monte Pez",
        "name:de": "Petz",
        "name:it": "Monte Pez",
        "natural": "peak",
        "tourism": "viewpoint",
        "wikidata": "Q264772",
        "wikipedia": "de:Schlern"
      }
    },
    {
      "type": "node",
      "id": 315864274,
      "lat": 46.7401061,
      "lon": 10.7351023,
      "tags": {
        "ele": "3433",
        "name": "Saldurspitze - Punta Saldura",
        "name:de": "Saldurspitze",
        "name:it": "Punta Saldura",
        "natural": "peak",
        "wikidata": "Q185164",
        "wikipedia": "de:Saldurspitze"
      }
    },
    {
      "type": "node",
      "id": 315866994,
      "lat": 46.7241109,
      "lon": 10.7236093,
      "tags": {
        "ele": "3336",
        "name": "Ramudlakopf - Cima Ramudla",
        "name:de": "Ramudlakopf",
        "name:it": "Cima Ramudla",
        "natural": "peak"
      }
    },
    {
      "type": "node",
      "id": 320883572,
      "lat": 46.7107724,
      "lon": 10.6018113,
      "tags": {
        "ele": "2570",
        "name": "Hochjoch - Giogo Alto",
        "name:de": "Hochjoch",
        "name:it": "Giogo Alto",
        "natural": "peak"
      }
    },
    {
      "type": "node",
      "id": 321172635,
      "lat": 46.8150150,
      "lon": 10.7510250,
      "tags": {
        "ele": "3355",
        "name": "Vernagl",
        "natural": "peak",
        "wikidata": "Q3907452"
      }
    },
    {
      "type": "node",
      "id": 321172720,
      "lat": 46.7861645,
      "lon": 10.7603513,
      "tags": {
        "ele": "3227",
        "name": "Teufelsegg - Cresta del Diavolo",
        "name:de": "Teufelsegg",
        "name:it": "Cresta del Diavolo",
        "natural": "peak",
        "source": "https://www.vivosuedtirol.com/it/sci-alpinismo/palla-bianca-val-senales/",
        "wikidata": "Q2853917"
      }
    },
    {
      "type": "node",
      "id": 321172792,
      "lat": 46.7746956,
      "lon": 10.8187485,
      "tags": {
        "ele": "3418",
        "name": "Westlicher Fineilkopf",
        "natural": "peak"
      }
    },
    {
      "type": "node",
      "id": 321172904,
      "lat": 46.7699606,
      "lon": 10.8962035,
      "tags": {
        "ele": "3527",
        "name": "Westliche Marzellspitze",
        "natural": "peak",
        "source": "basemap.at",
        "wikidata": "Q2151450",
        "wikipedia": "de:Westliche Marzellspitze"
      }
    },
    {
      "type": "node",
      "id": 321172955,
      "lat": 46.7752477,
      "lon": 10.9438015,
      "tags": {
        "ele": "3393",
        "name": "Rötenspitze",
        "natural": "peak",
        "source": "basemap.at",
        "wikidata": "Q11825919",
        "wikipedia": "de:Rötenspitze"
      }
    },
    {
      "type": "node",
      "id": 321173133,
      "lat": 46.8203848,
      "lon": 11.0757044,
      "tags": {
        "ele": "3400",
        "name": "Liebener Spitze",
        "name:de": "Liebener Spitze",
        "name:it": "Cima della Chiesa",
        "natural": "peak",
        "summit:cross": "yes",
        "wikidata": "Q6543866",
        "wikipedia": "de:Liebenerspitze"
      }
    },
    {
      "type": "node",
      "id": 321173143,
      "lat": 46.8226327,
      "lon": 11.0833601,
      "tags": {
        "ele": "3282",
        "name": "Seeberspitz",
        "name:de": "Seeberspitz",
        "name:it": "Cima del Lago",
        "name:old": "Seewerspitze",
        "natural": "peak",
        "note": "Positionsangabe im GeoPortal Südtirol mehrdeutig (2. Angabe 200m östlich im Seitenkamm zur Essener Scharte)",
        "source": "GeoPortal Südtirol"
      }
    },
    {
      "type": "node",
      "id": 321173167,
      "lat": 46.8383484,
      "lon": 11.0703190,
      "tags": {
        "ele": "3304",
        "name": "Granatenkogel - Monte dei Granati",
        "name:de": "Granatenkogel",
        "name:it": "Monte dei Granati",
        "natural": "peak",
        "source": "https://www.passeier.org/archiv/passeier/passeier-panorama.pdf",
        "wikidata": "Q1542417",
        "wikipedia": "de:Granatenkogel"
      }
    },
    {
      "type": "node",
      "id": 321173199,
      "lat": 46.8580817,
      "lon": 11.0730491,
      "tags": {
        "alt_name": "Östl. Königskogel",
        "ele": "3050",
        "name": "Königskogel",
        "natural": "peak",
        "source": "basemap.at"
      }
    },
    {
      "type": "node",
      "id": 321173259,
      "lat": 46.8898876,
      "lon": 11.1016994,
      "tags": {
        "ele": "2828",
        "historic": "boundary_stone",
        "name": "Westl. Bankerjoch Spitz",
        "natural": "peak",
        "source": "survey"
      }
    },
    {
      "type": "node",
      "id": 321173385,
      "lat": 46.9450235,
      "lon": 11.1680984,
      "tags": {
        "ele": "3358",
        "name": "Schwarzwandspitz - Croda Nera di Malavalle",
        "name:de": "Schwarzwandspitz",
        "name:it": "Croda Nera di Malavalle",
        "natural": "peak",
        "wikidata": "Q21865674"
      }
    },
    {
      "type": "node",
      "id": 321447807,
      "lat": 46.7799970,
      "lon": 10.6344177,
      "tags": {
        "ele": "3110",
        "name": "Danzebell - Cima Dentrovalle",
        "name:de": "Danzebell",
        "name:it": "Cima Dentrovalle",
        "natural": "peak",
        "source": "SRTM"
      }
    },
    {
      "type": "node",
      "id": 328330002,
      "lat": 46.8478404,
      "lon": 10.5810567,
      "tags": {
        "ele": "2892",
        "name": "Mataunkopf - Cima Mataun",
        "name:de": "Mataunkopf",
        "name:it": "Cima Mataun",
        "natural": "peak",
        "source": "http://www.summitpost.org/grosser-schafkopf-cima-delle-pecore/486354",
        "wikidata": "Q31661929"
      }
    },
    {
      "type": "node",
      "id": 328330191,
      "lat": 46.8408980,
      "lon": 10.5582236,
      "tags": {
        "ele": "2960",
        "natural": "peak"
      }
    },
    {
      "type": "node",
      "id": 328330300,
      "lat": 46.8372666,
      "lon": 10.5461739,
      "tags": {
        "ele": "2922",
        "name": "Klopaier Spitze - Piz Clopai",
        "name:de": "Klopaier Spitze",
        "name:it": "Piz Clopai",
        "natural": "peak",
        "source": "estimated from height lines",
        "wikidata": "Q1774869",
        "wikipedia": "de:Klopaierspitze"
      }
    },
    {
      "type": "node",
      "id": 328330391,
      "lat": 46.8468669,
      "lon": 10.5563765,
      "tags": {
        "alt_name": "Bergkastlspitze",
        "ele": "2920",
        "name": "Bergkastelspitze - Cima Castello",
        "name:de": "Bergkastelspitze",
        "name:it": "Cima Castello",
        "natural": "peak",
        "source": "GPS",
        "wikidata": "Q22691327",
        "wikipedia": "de:Bergkastelspitze"
      }
    },
    {
      "type": "node",
      "id": 328348442,
      "lat": 46.8226264,
      "lon": 10.7638720,
      "tags": {
        "ele": "3486",
        "name": "Hintere Hintereisspitze",
        "natural": "peak",
        "wikidata": "Q872565",
        "wikipedia": "de:Hintereisspitzen"
      }
    },
    {
      "type": "node",
      "id": 328348477,
      "lat": 46.8267300,
      "lon": 10.7585070,
      "tags": {
        "ele": "3381",
        "name": "Zinne",
        "natural": "peak"
      }
    },
    {
      "type": "node",
      "id": 328348936,
      "lat": 46.8676615,
      "lon": 10.6902397,
      "tags": {
        "comment": "alt_name gemäss Vorschlag aus Rother Wanderbuch eingesetzt",
        "ele": "3046",
        "name": "Weißseekopf",
        "natural": "peak"
      }
    },
    {
      "type": "node",
      "id": 328349003,
      "lat": 46.8682650,
      "lon": 10.6820630,
      "tags": {
        "ele": "3092",
        "name": "Nasse Wand / Naßwandspitze",
        "natural": "peak"
      }
    },
    {
      "type": "node",
      "id": 328349056,
      "lat": 46.8705700,
      "lon": 10.6777080,
      "tags": {
        "ele": "3066",
        "name": "Naßwandegg",
        "natural": "peak",
        "source": "estimated from height lines"
      }
    },
    {
      "type": "node",
      "id": 328349085,
      "lat": 46.8702120,
      "lon": 10.6726380,
      "tags": {
        "ele": "3077",
        "natural": "peak",
        "source": "estimated from height lines"
      }
    },
    {
      "type": "node",
      "id": 328349140,
      "lat": 46.8754890,
      "lon": 10.6673729,
      "tags": {
        "ele": "3144",
        "name": "Hennesiglspitz - Punta della Gallina",
        "name:de": "Hennesiglspitz",
        "name:it": "Punta della Gallina",
        "natural": "peak",
        "source": "http://www.caitregnago.it/public/tmp1/all-304.pdf"
      }
    },
    {
      "type": "node",
      "id": 333047663,
      "lat": 46.7882300,
      "lon": 10.7307155,
      "tags": {
        "ele": "3516",
        "name": "Innere Quellspitze - Cima della Sorgente di Dentro",
        "name:de": "Innere Quellspitze",
        "name:it": "Cima della Sorgente di Dentro",
        "natural": "peak",
        "wikidata": "Q1663998",
        "wikipedia": "de:Innere Quellspitze"
      }
    },
    {
      "type": "node",
      "id": 333899881,
      "lat": 46.9725150,
      "lon": 11.7275919,
      "tags": {
        "ele": "3510",
        "name": "Hochfeiler - Gran Pilastro",
        "name:de": "Hochfeiler",
        "name:it": "Gran Pilastro",
        "natural": "peak",
        "prominence": "981",
        "summit:cross": "yes",
        "wikidata": "Q700225",
        "wikipedia": "it:Gran Pilastro"
      }
    },
    {
      "type": "node",
      "id": 333899964,
      "lat": 46.9728092,
      "lon": 11.7581035,
      "tags": {
        "ele": "3212",
        "name": "Breitnock - Dosso Largo",
        "name:de": "Breitnock",
        "name:it": "Dosso Largo",
        "natural": "peak",
        "wikidata": "Q31669974"
      }
    },
    {
      "type": "node",
      "id": 333900003,
      "lat": 46.9729405,
      "lon": 11.7645694,
      "tags": {
        "ele": "3076",
        "name": "Muttenock - Monte Muta",
        "name:de": "Muttenock",
        "name:it": "Monte Muta",
        "natural": "peak",
        "wikidata": "Q31669956"
      }
    },
    {
      "type": "node",
      "id": 333900114,
      "lat": 46.9887401,
      "lon": 11.7805429,
      "tags": {
        "ele": "3389",
        "name": "Möselekopf",
        "natural": "peak",
        "wikidata": "Q31669937"
      }
    },
    {
      "type": "node",
      "id": 333900137,
      "lat": 46.9915288,
      "lon": 11.7861305,
      "tags": {
        "ele": "3405",
        "name": "Kleiner Möseler - Piccolo Mèsule",
        "name:de": "Kleiner Möseler",
        "name:it": "Piccolo Mèsule",
        "natural": "peak",
        "wikidata": "Q31223074"
      }
    },
    {
      "type": "node",
      "id": 333900168,
      "lat": 46.9910303,
      "lon": 11.7961278,
      "tags": {
        "ele": "3297",
        "name": "Möselenock",
        "natural": "peak"
      }
    },
    {
      "type": "node",
      "id": 333900187,
      "lat": 46.9917446,
      "lon": 11.8039250,
      "tags": {
        "ele": "3298",
        "name": "Rossgruspitz - Dosso di Cavallo",
        "name:de": "Rossgruspitz",
        "name:it": "Dosso di Cavallo",
        "natural": "peak"
      }
    },
    {
      "type": "node",
      "id": 333900218,
      "lat": 46.9901885,
      "lon": 11.8097646,
      "tags": {
        "ele": "3416",
        "name": "Turnerkamp - Cima di Campo",
        "name:de": "Turnerkamp",
        "name:it": "Cima di Campo",
        "natural": "peak",
        "wikidata": "Q663046",
        "wikipedia": "it:Cima di Campo"
      }
    },
    {
      "type": "node",
      "id": 333900295,
      "lat": 46.9984999,
      "lon": 11.8400477,
      "tags": {
        "ele": "3085",
        "name": "IV. Hornspitz",
        "natural": "peak",
        "wikidata": "Q21880601"
      }
    },
    {
      "type": "node",
      "id": 333900402,
      "lat": 47.0100807,
      "lon": 11.8740404,
      "tags": {
        "ele": "3369",
        "name": "Schwarzenstein - Sasso Nero",
        "name:de": "Schwarzenstein",
        "name:it": "Sasso Nero",
        "natural": "peak",
        "wikidata": "Q637697",
        "wikipedia": "it:Sasso Nero"
      }
    },
    {
      "type": "node",
      "id": 333900646,
      "lat": 47.0334354,
      "lon": 11.9467709,
      "tags": {
        "ele": "3093",
        "name": "Keilbachspitz - Punta del Conio",
        "name:de": "Keilbachspitz",
        "name:it": "Punta del Conio",
        "natural": "peak"
      }
    },
    {
      "type": "node",
      "id": 333900721,
      "lat": 47.0385361,
      "lon": 11.9515981,
      "tags": {
        "ele": "2952",
        "name": "Kasseler Spitz",
        "natural": "peak"
      }
    },
    {
      "type": "node",
      "id": 333900752,
      "lat": 47.0432453,
      "lon": 11.9568049,
      "tags": {
        "ele": "2947",
        "name": "Grüne Wand",
        "name:de": "Grüne Wand",
        "name:it": "Croda Verde",
        "natural": "peak"
      }
    },
    {
      "type": "node",
      "id": 333900776,
      "lat": 47.0404650,
      "lon": 11.9685770,
      "tags": {
        "ele": "2964",
        "name": "Gfallenspitz",
        "name:de": "Gfallenspitz",
        "name:it": "Punta del Cavallo",
        "natural": "peak"
      }
    },
    {
      "type": "node",
      "id": 333900868,
      "lat": 47.0500006,
      "lon": 11.9791175,
      "tags": {
        "ele": "3210",
        "name": "Wollbachspitz - Punta di Valle",
        "name:de": "Wollbachspitz",
        "name:it": "Punta di Valle",
        "natural": "peak",
        "wikidata": "Q638086",
        "wikipedia": "it:Punta di Valle"
      }
    },
    {
      "type": "node",
      "id": 333900903,
      "lat": 47.0492482,
      "lon": 11.9942213,
      "tags": {
        "ele": "2851",
        "name": "Hollenzkofel",
        "natural": "peak"
      }
    },
    {
      "type": "node",
      "id": 333900928,
      "lat": 47.0486260,
      "lon": 12.0031313,
      "tags": {
        "ele": "2791",
        "name": "Am Hohen",
        "name:de": "Am Hohen",
        "name:it": "Cima di Landro",
        "natural": "peak"
      }
    },
    {
      "type": "node",
      "id": 333900989,
      "lat": 47.0548191,
      "lon": 12.0323873,
      "tags": {
        "ele": "2852",
        "name": "Sonnwand",
        "natural": "peak",
        "wikidata": "Q21880593"
      }
    },
    {
      "type": "node",
      "id": 333901224,
      "lat": 47.0732300,
      "lon": 12.1189087,
      "tags": {
        "ele": "2857",
        "name": "Winkelkopf",
        "natural": "peak",
        "wikidata": "Q31670984"
      }
    },
    {
      "type": "node",
      "id": 337966324,
      "lat": 46.9313982,
      "lon": 11.3205005,
      "tags": {
        "ele": "2709",
        "name": "Wetterspitze - Cima del Tempo",
        "name:de": "Wetterspitze",
        "name:it": "Cima del Tempo",
        "natural": "peak",
        "wikidata": "Q2566033"
      }
    },
    {
      "type": "node",
      "id": 338810180,
      "lat": 46.9217930,
      "lon": 11.3517069,
      "tags": {
        "ele": "2588",
        "name": "Telfer Weissen - Cime Bianche di Telves",
        "name:de": "Telfer Weissen",
        "name:it": "Cime Bianche di Telves",
        "natural": "peak",
        "wikidata": "Q2402137"
      }
    },
    {
      "type": "node",
      "id": 340235998,
      "lat": 45.8621023,
      "lon": 6.9599716,
      "tags": {
        "ele": "4001",
        "name": "Aiguille de Rochefort",
        "natural": "peak",
        "source": "Yahoo",
        "wikidata": "Q404672",
        "wikipedia": "it:Aiguille de Rochefort"
      }
    },
    {
      "type": "node",
      "id": 355730402,
      "lat": 46.0115330,
      "lon": 9.5274420,
      "tags": {
        "ele": "2553",
        "name": "Pizzo dei Tre Signori",
        "natural": "peak",
        "summit:cross": "yes",
        "wikidata": "Q2739302",
        "wikipedia": "it:Pizzo dei Tre Signori"
      }
    },
    {
      "type": "node",
      "id": 361176448,
      "lat": 45.5445008,
      "lon": 7.2738386,
      "tags": {
        "ele": "3778",
        "name": "Herbetet",
        "natural": "peak",
        "source": "Carta Tecnica Regione VDA",
        "wikidata": "Q3785155",
        "wikipedia": "it:Herbétet"
      }
    },
    {
      "type": "node",
      "id": 361367417,
      "lat": 45.9149710,
      "lon": 7.8619768,
      "tags": {
        "ele": "4322",
        "name": "Corno Nero",
        "name:de": "Schwarzhorn",
        "name:fr": "Tête Noire",
        "natural": "peak",
        "source": "Carta Tecnica Regione VDA",
        "wikidata": "Q30429",
        "wikipedia": "it:Corno Nero (Alpi Pennine)"
      }
    },
    {
      "type": "node",
      "id": 362379104,
      "lat": 46.5132120,
      "lon": 11.7164217,
      "tags": {
        "ele": "2958",
        "name": "Sasplat - Plattkofel - Sasso Piatto",
        "name:de": "Plattkofel",
        "name:it": "Sasso Piatto",
        "name:lld": "Sasplat",
        "natural": "peak",
        "summit:cross": "yes",
        "wikidata": "Q365711",
        "wikipedia": "it:Sassopiatto"
      }
    },
    {
      "type": "node",
      "id": 364072386,
      "lat": 45.9208491,
      "lon": 7.7932734,
      "tags": {
        "ele": "4228",
        "name": "Castor",
        "name:it": "Punta Castore",
        "natural": "peak",
        "prominence": "165",
        "source": "GPS survey 2010.09.04",
        "wikidata": "Q30446",
        "wikipedia": "it:Castore (monte)"
      }
    },
    {
      "type": "node",
      "id": 365064161,
      "lat": 45.9410548,
      "lon": 7.7476801,
      "tags": {
        "ele": "4164",
        "name": "Breithorn Occidentale / Westgipfel",
        "name:de": "Breithorn Westgipfel",
        "name:it": "Breithorn Occidentale",
        "natural": "peak",
        "wikidata": "Q3644197",
        "wikipedia": "it:Breithorn Occidentale"
      }
    },
    {
      "type": "node",
      "id": 365180178,
      "lat": 46.8661462,
      "lon": 10.6504159,
      "tags": {
        "ele": "3021",
        "name": "Glockhauser",
        "natural": "peak"
      }
    },
    {
      "type": "node",
      "id": 365180189,
      "lat": 46.8505997,
      "lon": 10.5904715,
      "tags": {
        "ele": "2903",
        "name": "Wölfeleskopf - Cima del Lupo",
        "name:de": "Wölfeleskopf",
        "name:it": "Cima del Lupo",
        "natural": "peak",
        "source": "http://www.summitpost.org/grosser-schafkopf-cima-delle-pecore/486354"
      }
    },
    {
      "type": "node",
      "id": 365180193,
      "lat": 46.7995216,
      "lon": 10.6527936,
      "tags": {
        "ele": "3176",
        "name": "Mitterlochspitz - Punta Buco di Mezzo",
        "name:de": "Mitterlochspitz",
        "name:it": "Punta Buco di Mezzo",
        "natural": "peak",
        "wikidata": "Q31661705"
      }
    },
    {
      "type": "node",
      "id": 365180196,
      "lat": 46.8045368,
      "lon": 10.6613128,
      "tags": {
        "ele": "3199",
        "name": "Falbenairspitze - Punta di Val Benair",
        "name:de": "Falbenairspitze",
        "name:it": "Punta di Val Benair",
        "natural": "peak"
      }
    },
    {
      "type": "node",
      "id": 366260714,
      "lat": 45.8360540,
      "lon": 6.8186739,
      "tags": {
        "ele": "4052",
        "name": "Aiguille de Bionnassay",
        "natural": "peak",
        "source": "Carta Tecnica Regione VDA",
        "wikidata": "Q30493",
        "wikipedia": "it:Aiguille de Bionnassay"
      }
    },
    {
      "type": "node",
      "id": 367510882,
      "lat": 45.7917719,
      "lon": 6.8329652,
      "tags": {
        "ele": "3431",
        "name": "Petit Mont Blanc",
        "natural": "peak",
        "sources": "Carta Tecnica Regione VDA"
      }
    },
    {
      "type": "node",
      "id": 367945270,
      "lat": 45.8842279,
      "lon": 7.0209502,
      "tags": {
        "ele": "3686",
        "name": "Monte Gruetta",
        "name:fr": "Mont Gruetta",
        "natural": "peak",
        "wikidata": "Q3861038",
        "wikipedia": "it:Mont Greuvetta"
      }
    },
    {
      "type": "node",
      "id": 367945279,
      "lat": 45.8817052,
      "lon": 7.0026095,
      "tags": {
        "ele": "3650",
        "name": "Petites Jorasses",
        "natural": "peak",
        "wikidata": "Q3900992",
        "wikipedia": "it:Petites Jorasses"
      }
    },
    {
      "type": "node",
      "id": 367945311,
      "lat": 45.8237506,
      "lon": 6.8812639,
      "tags": {
        "ele": "4098",
        "name": "Aiguille Blanche de Peuterey - Nord",
        "natural": "peak",
        "sources": "Carta Tecnica Regione VDA",
        "wikidata": "Q30472",
        "wikipedia": "it:Aiguille Blanche de Peuterey"
      }
    },
    {
      "type": "node",
      "id": 367945312,
      "lat": 45.8151036,
      "lon": 6.8933857,
      "tags": {
        "ele": "3772",
        "name": "Aiguille Noire de Peuterey",
        "natural": "peak",
        "sources": "Carta Tecnica Regione VDA",
        "wikidata": "Q404650",
        "wikipedia": "it:Aiguille Noire de Peuterey"
      }
    },
    {
      "type": "node",
      "id": 367945331,
      "lat": 45.8065584,
      "lon": 6.8600713,
      "tags": {
        "ele": "3353",
        "name": "Aiguille Brouillard",
        "natural": "peak"
      }
    },
    {
      "type": "node",
      "id": 367945337,
      "lat": 45.7737052,
      "lon": 6.8217790,
      "tags": {
        "ele": "2975",
        "name": "Aiguille des Échelettes",
        "natural": "peak",
        "sources": "Carta Tecnica Regione VDA"
      }
    },
    {
      "type": "node",
      "id": 387417030,
      "lat": 46.1561611,
      "lon": 10.4963321,
      "tags": {
        "ele": "3539",
        "name": "Monte Adamello",
        "natural": "peak",
        "summit:cross": "yes",
        "wikidata": "Q351582",
        "wikipedia": "it:Adamello (monte)"
      }
    },
    {
      "type": "node",
      "id": 388105705,
      "lat": 46.1770801,
      "lon": 10.6035723,
      "tags": {
        "ele": "2859",
        "name": "Stablel",
        "natural": "peak",
        "wikidata": "Q31636627"
      }
    },
    {
      "type": "node",
      "id": 388111946,
      "lat": 46.1755980,
      "lon": 10.6006377,
      "tags": {
        "ele": "2968",
        "name": "Ago Mingo",
        "natural": "peak",
        "wikidata": "Q31636613"
      }
    },
    {
      "type": "node",
      "id": 388112267,
      "lat": 46.1722058,
      "lon": 10.5968144,
      "tags": {
        "ele": "3064",
        "name": "Punta Orco",
        "natural": "peak"
      }
    },
    {
      "type": "node",
      "id": 388118380,
      "lat": 46.1267407,
      "lon": 10.6262626,
      "tags": {
        "ele": "2870",
        "name": "Monte Coel",
        "natural": "peak"
      }
    },
    {
      "type": "node",
      "id": 388118382,
      "lat": 46.1274546,
      "lon": 10.6308116,
      "tags": {
        "ele": "2810",
        "name": "Cima di Pra Vecchio",
        "natural": "peak"
      }
    },
    {
      "type": "node",
      "id": 388118426,
      "lat": 46.1282873,
      "lon": 10.6380214,
      "tags": {
        "ele": "2802",
        "name": "Cima degli Obici",
        "natural": "peak"
      }
    },
    {
      "type": "node",
      "id": 389527130,
      "lat": 46.8571635,
      "lon": 10.5954265,
      "tags": {
        "ele": "3000",
        "name": "Großer Schafkopf - Cima delle Pecore",
        "name:de": "Großer Schafkopf",
        "name:it": "Cima delle Pecore",
        "natural": "peak",
        "source": "http://www.summitpost.org/grosser-schafkopf-cima-delle-pecore/486354"
      }
    },
    {
      "type": "node",
      "id": 390987880,
      "lat": 45.6907971,
      "lon": 6.8466097,
      "tags": {
        "ele": "2966",
        "name": "Mont di Fourclaz",
        "name:fr": "Mont de Fourclaz",
        "natural": "peak",
        "source": "cadastre-dgi-fr source : Direction Générale des Impôts - Cadastre. Mise à jour : 2009"
      }
    },
    {
      "type": "node",
      "id": 390988950,
      "lat": 45.7250446,
      "lon": 6.8087310,
      "tags": {
        "ele": "3111",
        "name": "Mont de la Fourclaz",
        "natural": "peak",
        "source": "Carta Tecnica Regione VDA"
      }
    },
    {
      "type": "node",
      "id": 391413466,
      "lat": 45.1597528,
      "lon": 6.7682042,
      "tags": {
        "ele": "3506",
        "name": "Aiguille de Scolette",
        "name:fr": "Aiguille de Scolette",
        "name:it": "Pierre Menue",
        "natural": "peak",
        "prominence": "1069",
        "source": "cadastre-dgi-fr source : Direction Générale des Impôts - Cadastre. Mise à jour : 2009",
        "wikidata": "Q2275702",
        "wikipedia": "en:Aiguille de Scolette"
      }
    },
    {
      "type": "node",
      "id": 393169669,
      "lat": 45.9865879,
      "lon": 7.5753265,
      "tags": {
        "ele": "3710",
        "name": "Tête Blanche",
        "natural": "peak",
        "source": "Carta Tecnica Regione VDA",
        "wikidata": "Q674392",
        "wikipedia": "it:Tête Blanche (Alpi Pennine)"
      }
    },
    {
      "type": "node",
      "id": 393171421,
      "lat": 45.9264813,
      "lon": 7.8232487,
      "tags": {
        "ele": "4479",
        "name": "Liskamm Westgipfel",
        "name:fr": "Liksamm Occidental",
        "name:it": "Lyskamm Occidentale",
        "natural": "peak",
        "wikidata": "Q2575023",
        "wikipedia": "it:Lyskamm Occidentale"
      }
    },
    {
      "type": "node",
      "id": 393798187,
      "lat": 45.4708633,
      "lon": 7.0888011,
      "tags": {
        "ele": "3222",
        "natural": "peak",
        "source": "cadastre-dgi-fr source : Direction Générale des Impôts - Cadastre. Mise à jour : 2009"
      }
    },
    {
      "type": "node",
      "id": 393798416,
      "lat": 45.4724470,
      "lon": 7.0486167,
      "tags": {
        "ele": "3469",
        "name": "Pointe Sud du Couart Dessus",
        "natural": "peak",
        "source": "cadastre-dgi-fr source : Direction Générale des Impôts - Cadastre. Mise à jour : 2009"
      }
    },
    {
      "type": "node",
      "id": 393892582,
      "lat": 46.4499006,
      "lon": 10.6830677,
      "tags": {
        "ele": "3346",
        "fixme": "In Österreich heißt dieser Berg tatsächlich \"Köllkuppe\". In Deutschland aber wird er meines Wissens oft auch übersetzt \"Murmeltierspitze\" genannt?!? Bitte prüfen!",
        "name": "Köllkuppe - Cima Marmotta",
        "name:at": "Köllkuppe",
        "name:de": "Köllkuppe",
        "natural": "peak",
        "wikidata": "Q1092002"
      }
    },
    {
      "type": "node",
      "id": 394455954,
      "lat": 46.4810500,
      "lon": 10.6090100,
      "tags": {
        "ele": "3230",
        "name": "Eisseespitze",
        "natural": "peak"
      }
    },
    {
      "type": "node",
      "id": 394921961,
      "lat": 46.5580479,
      "lon": 10.6483994,
      "tags": {
        "ele": "3318",
        "name": "Kleine Angelus Spitze - L'Angelo Piccolo",
        "name:de": "Kleine Angelus Spitze",
        "name:it": "L'Angelo Piccolo",
        "natural": "peak",
        "source": "https://map.schweizmobil.ch"
      }
    },
    {
      "type": "node",
      "id": 394921970,
      "lat": 46.5028307,
      "lon": 10.6286360,
      "tags": {
        "ele": "3325",
        "name": "Hintere Schöntaufspitze",
        "name:it": "Punta Beltovo di Dentro",
        "natural": "peak",
        "wikidata": "Q173937",
        "wikipedia": "it:Punta Beltovo di Dentro"
      }
    },
    {
      "type": "node",
      "id": 394921971,
      "lat": 46.4515229,
      "lon": 10.6221323,
      "tags": {
        "alt_name:de": "Vordere Zufallspitze",
        "ele": "3700",
        "name": "Nördliche Zufallspitze - Cevedale I",
        "name:de": "Nördliche Zufallspitze",
        "name:it": "Cevedale I",
        "natural": "peak"
      }
    },
    {
      "type": "node",
      "id": 394921973,
      "lat": 46.4689100,
      "lon": 10.5994200,
      "tags": {
        "ele": "3376",
        "name": "Cima di Solda - Suldenspitze",
        "name:de": "Suldenspitze",
        "name:it": "Cima di Solda",
        "natural": "peak"
      }
    },
    {
      "type": "node",
      "id": 394921976,
      "lat": 46.4538768,
      "lon": 10.6894503,
      "tags": {
        "ele": "3386",
        "name": "Cima Venezia - Veneziaspitze",
        "name:de": "Veneziaspitze",
        "name:it": "Cima Venezia",
        "natural": "peak",
        "wikidata": "Q2512894",
        "wikipedia": "it:Cima Venezia"
      }
    },
    {
      "type": "node",
      "id": 394921977,
      "lat": 46.4559626,
      "lon": 10.6906051,
      "tags": {
        "ele": "3371",
        "name": "Zweite Veneziaspitze - Cima Venezia II",
        "name:de": "Zweite Veneziaspitze",
        "name:it": "Cima Venezia II",
        "natural": "peak"
      }
    },
    {
      "type": "node",
      "id": 394921978,
      "lat": 46.3778700,
      "lon": 10.5671200,
      "tags": {
        "ele": "3678",
        "name": "Punta San Matteo",
        "natural": "peak",
        "summit:cross": "yes",
        "wikidata": "Q833472",
        "wikipedia": "it:Punta San Matteo"
      }
    },
    {
      "type": "node",
      "id": 394921980,
      "lat": 46.5641879,
      "lon": 10.6288047,
      "tags": {
        "ele": "3375",
        "name": "Croda di Cengels - Tschenglser Hochwand",
        "name:de": "Tschenglser Hochwand",
        "name:it": "Croda di Cengels",
        "natural": "peak",
        "wikidata": "Q2457731"
      }
    },
    {
      "type": "node",
      "id": 394921981,
      "lat": 46.3775927,
      "lon": 10.5992719,
      "tags": {
        "ele": "3524",
        "name": "Punta Cadini",
        "natural": "peak"
      }
    },
    {
      "type": "node",
      "id": 394924264,
      "lat": 46.3905148,
      "lon": 10.5431963,
      "tags": {
        "ele": "3594",
        "name": "Pizzo Tresero",
        "natural": "peak",
        "summit:cross": "yes",
        "wikidata": "Q1782088",
        "wikipedia": "it:Pizzo Tresero"
      }
    },
    {
      "type": "node",
      "id": 395479547,
      "lat": 46.1007626,
      "lon": 8.0462265,
      "tags": {
        "ele": "3255",
        "natural": "peak"
      }
    },
    {
      "type": "node",
      "id": 395479552,
      "lat": 46.1004688,
      "lon": 8.0407019,
      "tags": {
        "ele": "3327",
        "natural": "peak"
      }
    },
    {
      "type": "node",
      "id": 398230266,
      "lat": 46.6918629,
      "lon": 11.2577275,
      "tags": {
        "ele": "2554",
        "name": "Kleiner Ifinger - Piccolo Picco Ivigna",
        "name:de": "Kleiner Ifinger",
        "name:it": "Piccolo Picco Ivigna",
        "natural": "peak"
      }
    },
    {
      "type": "node",
      "id": 398230269,
      "lat": 46.6923362,
      "lon": 11.2567973,
      "tags": {
        "ele": "2581",
        "name": "Ifinger - Grande Picco Ivigna",
        "name:de": "Ifinger",
        "name:it": "Grande Picco Ivigna",
        "natural": "peak",
        "wikidata": "Q467229",
        "wikipedia": "it:Picco Ivigna"
      }
    },
    {
      "type": "node",
      "id": 400705642,
      "lat": 46.4773468,
      "lon": 10.7060454,
      "tags": {
        "ele": "3033",
        "name": "Vorderer Rotspitz - Cima Rossa di Martello",
        "name:de": "Vorderer Rotspitz",
        "name:it": "Cima Rossa di Martello",
        "natural": "peak",
        "summit:cross": "yes"
      }
    },
    {
      "type": "node",
      "id": 401234276,
      "lat": 45.9493215,
      "lon": 7.7084189,
      "tags": {
        "ele": "3472",
        "name": "Theodulhorn",
        "name:fr": "Mont de Saint Théodule",
        "natural": "peak",
        "note": "ele 3462 WGS",
        "wikidata": "Q7782204"
      }
    },
    {
      "type": "node",
      "id": 401234279,
      "lat": 45.9371819,
      "lon": 7.9397421,
      "tags": {
        "ele": "3215",
        "name": "Pizzo Bianco",
        "natural": "peak",
        "wikidata": "Q3905982",
        "wikipedia": "it:Pizzo Bianco (Alpi Pennine)"
      }
    },
    {
      "type": "node",
      "id": 401234280,
      "lat": 45.9167140,
      "lon": 7.8634831,
      "tags": {
        "ele": "4344",
        "name": "Ludwigshöhe",
        "natural": "peak",
        "source": "GPS survey 2010.09.05",
        "wikidata": "Q30423",
        "wikipedia": "it:Ludwigshöhe"
      }
    },
    {
      "type": "node",
      "id": 401234369,
      "lat": 45.9992259,
      "lon": 7.9749630,
      "tags": {
        "ele": "2985",
        "name": "Monte Moro",
        "natural": "peak",
        "wikidata": "Q6976767"
      }
    },
    {
      "type": "node",
      "id": 402877107,
      "lat": 46.4306229,
      "lon": 13.4912880,
      "tags": {
        "ele": "2666",
        "natural": "peak"
      }
    },
    {
      "type": "node",
      "id": 410443664,
      "lat": 46.3763695,
      "lon": 9.4610761,
      "tags": {
        "ele": "3082",
        "name": "Cima da Lägh",
        "natural": "peak",
        "wikidata": "Q2002817",
        "wikipedia": "it:Cima di Lago"
      }
    },
    {
      "type": "node",
      "id": 419727463,
      "lat": 46.7209873,
      "lon": 11.0935695,
      "tags": {
        "alt_name": "Spronser Rötelspitz",
        "alt_name_2": "Cima Rosa di Sopranes",
        "ele": "2628",
        "name": "Rötl",
        "natural": "peak",
        "summit:cross": "yes"
      }
    },
    {
      "type": "node",
      "id": 419730564,
      "lat": 46.7934778,
      "lon": 10.7822244,
      "tags": {
        "ele": "3269",
        "name": "Im Hinteren Eis - Punta della Vedretta",
        "name:de": "Im Hinteren Eis",
        "name:it": "Punta della Vedretta",
        "natural": "peak",
        "source": "https://www.merano-suedtirol.it/en/schnalstal-valley/mountain-holidays/hiking-mountain-tours/hiking-trails/16921690-punta-della-vedretta-im-hinteren-eis.html",
        "wikidata": "Q462290",
        "wikipedia": "en:Im Hinteren Eis"
      }
    },
    {
      "type": "node",
      "id": 419731200,
      "lat": 46.8286255,
      "lon": 11.1140058,
      "tags": {
        "alt_name": "Rauhes Joch",
        "ele": "2926",
        "man_made": "cairn",
        "name": "Rauhjochspitz - Monte Scabro",
        "name:de": "Rauhjochspitz",
        "name:it": "Monte Scabro",
        "natural": "peak",
        "note": "Namensgebung wie auf der Wegtafel am Abzweig",
        "source": "survey;https://www.passeier.org/archiv/passeier/passeier-panorama.pdf",
        "summit:cross": "yes"
      }
    },
    {
      "type": "node",
      "id": 419731201,
      "lat": 46.7724245,
      "lon": 11.1048429,
      "tags": {
        "ele": "2852",
        "name": "Sefiarspitz - Monte Tavolino",
        "name:de": "Sefiarspitz",
        "name:it": "Monte Tavolino",
        "natural": "peak",
        "source": "https://www.passeier.org/archiv/passeier/passeier-panorama.pdf",
        "summit:cross": "yes"
      }
    },
    {
      "type": "node",
      "id": 419733464,
      "lat": 46.6700622,
      "lon": 10.8179158,
      "tags": {
        "ele": "3110",
        "name": "Zerminiger - Cima Cermigna",
        "name:de": "Zerminiger",
        "name:it": "Cima Cermigna",
        "natural": "peak",
        "source": "https://www.sentres.com/it/trekking/trekking-per-la-cima-cermigna-zerminiger-spitze"
      }
    },
    {
      "type": "node",
      "id": 419734042,
      "lat": 46.6776687,
      "lon": 10.6599769,
      "tags": {
        "ele": "2950",
        "name": "Hohes Kreuzjoch - Monte Croce",
        "name:de": "Hohes Kreuzjoch",
        "name:it": "Monte Croce",
        "natural": "peak"
      }
    },
    {
      "type": "node",
      "id": 419737020,
      "lat": 46.6875303,
      "lon": 10.6869115,
      "tags": {
        "ele": "3206",
        "name": "Litzer Spitz - Punta d'Alliz",
        "name:de": "Litzer Spitz",
        "name:it": "Punta d'Alliz",
        "natural": "peak",
        "source": "https://map.schweizmobil.ch"
      }
    },
    {
      "type": "node",
      "id": 419737022,
      "lat": 46.6780723,
      "lon": 10.6755219,
      "tags": {
        "ele": "3074",
        "name": "Madratschknott - Montaccio",
        "name:de": "Madratschknott",
        "name:it": "Montaccio",
        "natural": "peak",
        "source": "https://map.schweizmobil.ch/"
      }
    },
    {
      "type": "node",
      "id": 419824404,
      "lat": 46.8328996,
      "lon": 10.7057465,
      "tags": {
        "ele": "3045",
        "name": "Adlerkopf",
        "natural": "peak"
      }
    },
    {
      "type": "node",
      "id": 419826242,
      "lat": 46.7921388,
      "lon": 10.5654422,
      "tags": {
        "ele": "2627",
        "name": "Endkopf (Jaggl) - Cima Termine",
        "name:de": "Endkopf",
        "name:it": "Cima Termine",
        "natural": "peak",
        "wikidata": "Q203714"
      }
    },
    {
      "type": "node",
      "id": 419827753,
      "lat": 46.7455839,
      "lon": 11.0373396,
      "tags": {
        "alt_name": "Hochweiße",
        "ele": "3277",
        "name": "Hohe Weiße - Cima Bianca Grande",
        "name:de": "Hohe Weiße",
        "name:it": "Cima Bianca Grande",
        "natural": "peak",
        "source": "https://www.passeier.org/archiv/passeier/passeier-panorama.pdf",
        "wikidata": "Q3676722",
        "wikipedia": "de:Hochweiße"
      }
    },
    {
      "type": "node",
      "id": 419828029,
      "lat": 46.9289695,
      "lon": 11.2361457,
      "tags": {
        "ele": "2711",
        "name": "Krapfenkarspitz - Quaira Tonda",
        "name:de": "Krapfenkarspitz",
        "name:it": "Quaira Tonda",
        "natural": "peak"
      }
    },
    {
      "type": "node",
      "id": 419828498,
      "lat": 46.7233875,
      "lon": 11.0490698,
      "tags": {
        "ele": "3038",
        "name": "Lazinser Rötelspitze - Cima Rosa di Sopranes",
        "name:de": "Lazinser Rötelspitze",
        "name:it": "Cima Rosa",
        "natural": "peak",
        "summit:cross": "yes",
        "wikidata": "Q2279635"
      }
    },
    {
      "type": "node",
      "id": 419828667,
      "lat": 46.7618951,
      "lon": 10.6023765,
      "tags": {
        "ele": "2909",
        "name": "Mittereggspitze - Punta di Mezzo",
        "name:de": "Mittereggspitze",
        "name:it": "Punta di Mezzo",
        "natural": "peak"
      }
    },
    {
      "type": "node",
      "id": 419828983,
      "lat": 46.8432485,
      "lon": 10.6843240,
      "tags": {
        "ele": "3009",
        "name": "Nockspitz - Cima del Dosso",
        "name:de": "Nockspitz",
        "name:it": "Cima del Dosso",
        "natural": "peak",
        "source": "http://www.caitregnago.it/public/tmp1/all-304.pdf",
        "wikidata": "Q31661896"
      }
    },
    {
      "type": "node",
      "id": 419830372,
      "lat": 46.9741615,
      "lon": 11.2566619,
      "tags": {
        "ele": "3174",
        "name": "Schneespitze - Monte della Neve",
        "name:de": "Schneespitze",
        "name:it": "Monte della Neve",
        "natural": "peak",
        "wikidata": "Q2247427",
        "wikipedia": "it:Monte della Neve"
      }
    },
    {
      "type": "node",
      "id": 419832339,
      "lat": 46.7198690,
      "lon": 11.0600507,
      "tags": {
        "alt_name": "Tschigot",
        "alt_name:it": "Giogo di Tessa",
        "ele": "2999",
        "name": "Tschigat - Gigot",
        "name:de": "Tschigat",
        "name:it": "Gigot",
        "natural": "peak",
        "source:ele": "Geobrowser Südtirol",
        "summit:cross": "yes",
        "wikidata": "Q2457958",
        "wikipedia": "de:Tschigat"
      }
    },
    {
      "type": "node",
      "id": 419832634,
      "lat": 46.6592288,
      "lon": 10.8700812,
      "tags": {
        "ele": "2923",
        "name": "Vermoi Spitze - Punta Vermoi",
        "name:de": "Vermoi Spitze",
        "name:it": "Punta Vermoi",
        "natural": "peak",
        "wikidata": "Q22694423"
      }
    },